<gpx version="1.1" creator="OsmAnd 3.3.7" xmlns="http://www.topografix.com/GPX/1/1" xmlns:xsi="http://www.w3.org/2001/XMLSchema-instance" xsi:schemaLocation="http://www.topografix.com/GPX/1/1 http://www.topografix.com/GPX/1/1/gpx.xsd">            <metadata><name>Markers_2019-06-11</name></metadata><wpt lat="55.7449006" lon="37.6020183">
<time>27.06.2019, 16:24:55</time>
<name>0001.ст. м. Кропоткинская (выход к Гоголевскому бульвару) [undefinedкм]</name>
<sym>Scenic Area</sym>
<extensions><color>#0088ff00</color></extensions>
</wpt>
<wpt lat="55.6337498" lon="37.5205529">
<time>27.06.2019, 16:24:55</time>
<name>0387.ул. Профсоюзная, д.109, Вс.1 (ст. м. Коньково, выход №10) [undefinedкм]</name>
<sym>Scenic Area</sym>
<extensions><color>#0088ff00</color></extensions>
</wpt>
<wpt lat="55.7817849" lon="37.6144726">
<time>27.06.2019, 16:24:55</time>
<name>0411.ул. Селезнёвская, д.29, стр.1 (ст. м. Достоевская) [undefinedкм]</name>
<sym>Scenic Area</sym>
<extensions><color>#0088ff00</color></extensions>
</wpt>
<wpt lat="55.78921" lon="37.609836">
<time>27.06.2019, 16:24:55</time>
<name>0414.ул. Образцова, д.19А [undefinedкм]</name>
<sym>Scenic Area</sym>
<extensions><color>#0088ff00</color></extensions>
</wpt>
<wpt lat="55.7509180556" lon="37.6005927778">
<time>27.06.2019, 16:24:55</time>
<name>0003.Гоголевский б-р (напротив д.33) [undefinedкм]</name>
<sym>Scenic Area</sym>
<extensions><color>#0088ff00</color></extensions>
</wpt>
<wpt lat="55.7574181" lon="37.6086772">
<time>27.06.2019, 16:24:55</time>
<name>0007.Газетный пер., д.6 [undefinedкм]</name>
<sym>Scenic Area</sym>
<extensions><color>#0088ff00</color></extensions>
</wpt>
<wpt lat="55.761072" lon="37.601473">
<time>27.06.2019, 16:24:55</time>
<name>0008.Тверской б-р (напротив д.17, стр.1) [undefinedкм]</name>
<sym>Scenic Area</sym>
<extensions><color>#0088ff00</color></extensions>
</wpt>
<wpt lat="55.7646115" lon="37.6052356">
<time>27.06.2019, 16:24:55</time>
<name>0009.Тверской б-р (напротив д.28) [undefinedкм]</name>
<sym>Scenic Area</sym>
<extensions><color>#0088ff00</color></extensions>
</wpt>
<wpt lat="55.7667105556" lon="37.6094894444">
<time>27.06.2019, 16:24:55</time>
<name>0010.Страстной б-р (напротив д.8А) [undefinedкм]</name>
<sym>Scenic Area</sym>
<extensions><color>#0088ff00</color></extensions>
</wpt>
<wpt lat="55.7599141" lon="37.6316201">
<time>27.06.2019, 16:24:55</time>
<name>0016.ул. Мясницкая, д.10 [undefinedкм]</name>
<sym>Scenic Area</sym>
<extensions><color>#0088ff00</color></extensions>
</wpt>
<wpt lat="55.760381" lon="37.645665">
<time>27.06.2019, 16:24:55</time>
<name>0018.Чистопрудный б-р (напротив д.12, стр.1) [undefinedкм]</name>
<sym>Scenic Area</sym>
<extensions><color>#0088ff00</color></extensions>
</wpt>
<wpt lat="55.7533283333" lon="37.6473502778">
<time>27.06.2019, 16:24:55</time>
<name>0021.Покровский б-р (напротив д.18, стр.18) [undefinedкм]</name>
<sym>Scenic Area</sym>
<extensions><color>#0088ff00</color></extensions>
</wpt>
<wpt lat="55.7598405" lon="37.6257601">
<time>27.06.2019, 16:24:55</time>
<name>0013.Театральный пр-д, д.5, стр.1 (ст. м. Лубянка) [undefinedкм]</name>
<sym>Scenic Area</sym>
<extensions><color>#0088ff00</color></extensions>
</wpt>
<wpt lat="55.7335583333" lon="37.596925">
<time>27.06.2019, 16:24:55</time>
<name>0200.Фрунзенская наб. (напротив д.4) [undefinedкм]</name>
<sym>Scenic Area</sym>
<extensions><color>#0088ff00</color></extensions>
</wpt>
<wpt lat="55.7257472222" lon="37.5898638889">
<time>27.06.2019, 16:24:55</time>
<name>0201.Фрунзенская наб. (пересеч. с 1-ой Фрунзенской ул.) [undefinedкм]</name>
<sym>Scenic Area</sym>
<extensions><color>#0088ff00</color></extensions>
</wpt>
<wpt lat="55.72175" lon="37.5864">
<time>27.06.2019, 16:24:55</time>
<name>0204.Фрунзенская наб. (пересеч. со 2-й Фрунзенской ул.) [undefinedкм]</name>
<sym>Scenic Area</sym>
<extensions><color>#0088ff00</color></extensions>
</wpt>
<wpt lat="55.7191972222" lon="37.5834861111">
<time>27.06.2019, 16:24:55</time>
<name>0206.Фрунзенская наб. (пересеч. с 3-ей Фрунзенской ул.) [undefinedкм]</name>
<sym>Scenic Area</sym>
<extensions><color>#0088ff00</color></extensions>
</wpt>
<wpt lat="55.7155083333" lon="37.5779888889">
<time>27.06.2019, 16:24:55</time>
<name>0207.Фрунзенская наб, д. 54 (пересеч. с ул. Хамовнический Вал) [undefinedкм]</name>
<sym>Scenic Area</sym>
<extensions><color>#0088ff00</color></extensions>
</wpt>
<wpt lat="55.7125583333" lon="37.5695222222">
<time>27.06.2019, 16:24:55</time>
<name>0210.Лужнецкая наб. (пересеч. с Новолужнецким пр.) [undefinedкм]</name>
<sym>Scenic Area</sym>
<extensions><color>#0088ff00</color></extensions>
</wpt>
<wpt lat="55.7351049" lon="37.5937289">
<time>27.06.2019, 16:24:55</time>
<name>0100.Зубовский б-р, д.5, стр.1 (ст. м. Парк Культуры) [undefinedкм]</name>
<sym>Scenic Area</sym>
<extensions><color>#0088ff00</color></extensions>
</wpt>
<wpt lat="55.727509" lon="37.583821">
<time>27.06.2019, 16:24:55</time>
<name>0202.Комсомольский пр-т (пересеч. с 1-ой Фрунзенской ул.) [undefinedкм]</name>
<sym>Scenic Area</sym>
<extensions><color>#0088ff00</color></extensions>
</wpt>
<wpt lat="55.724242" lon="37.579058">
<time>27.06.2019, 16:24:55</time>
<name>0203.Комсомольский пр-т (пересеч. со 2-ой Фрунзенской ул.) [undefinedкм]</name>
<sym>Scenic Area</sym>
<extensions><color>#0088ff00</color></extensions>
</wpt>
<wpt lat="55.721972" lon="37.575858">
<time>27.06.2019, 16:24:55</time>
<name>0205.Комсомольский пр-т (пересеч. с 3-ей Фрунзенской ул.) [undefinedкм]</name>
<sym>Scenic Area</sym>
<extensions><color>#0088ff00</color></extensions>
</wpt>
<wpt lat="55.721468" lon="37.561961">
<time>27.06.2019, 16:24:55</time>
<name>0209.ст. м. Спортивная (выход №1) [undefinedкм]</name>
<sym>Scenic Area</sym>
<extensions><color>#0088ff00</color></extensions>
</wpt>
<wpt lat="55.71227" lon="37.56075">
<time>27.06.2019, 16:24:55</time>
<name>0211.ст. м. Воробьёвы горы (Лужники) [undefinedкм]</name>
<sym>Scenic Area</sym>
<extensions><color>#0088ff00</color></extensions>
</wpt>
<wpt lat="55.736464" lon="37.581356">
<time>27.06.2019, 16:24:55</time>
<name>0216.ул. Большая Пироговская (напротив д.6/25) [undefinedкм]</name>
<sym>Scenic Area</sym>
<extensions><color>#0088ff00</color></extensions>
</wpt>
<wpt lat="55.733867" lon="37.575489">
<time>27.06.2019, 16:24:55</time>
<name>0215.ул. Большая Пироговская (напротив д.15/18, стр.1) [undefinedкм]</name>
<sym>Scenic Area</sym>
<extensions><color>#0088ff00</color></extensions>
</wpt>
<wpt lat="55.726481" lon="37.580778">
<time>27.06.2019, 16:24:55</time>
<name>0218.Комсомольский пр-т, д.28 (ст. м. Фрунзенская) [undefinedкм]</name>
<sym>Scenic Area</sym>
<extensions><color>#0088ff00</color></extensions>
</wpt>
<wpt lat="55.731139" lon="37.569297">
<time>27.06.2019, 16:24:55</time>
<name>0214.ул. Большая Пироговская, д.2, стр.4 [undefinedкм]</name>
<sym>Scenic Area</sym>
<extensions><color>#0088ff00</color></extensions>
</wpt>
<wpt lat="55.726908" lon="37.559608">
<time>27.06.2019, 16:24:55</time>
<name>0213.ул. Большая Пироговская (на площади Новодевичьего Монастыря) [undefinedкм]</name>
<sym>Scenic Area</sym>
<extensions><color>#0088ff00</color></extensions>
</wpt>
<wpt lat="55.719322" lon="37.570481">
<time>27.06.2019, 16:24:55</time>
<name>0219.Комсомольский пр-т, д.48/22 (дублёр, пересеч. с ул. Хамовнический Вал) [undefinedкм]</name>
<sym>Scenic Area</sym>
<extensions><color>#0088ff00</color></extensions>
</wpt>
<wpt lat="55.773194" lon="37.614186">
<time>27.06.2019, 16:24:55</time>
<name>0120.ул. Садовая-Самотечная, д.8 [undefinedкм]</name>
<sym>Scenic Area</sym>
<extensions><color>#0088ff00</color></extensions>
</wpt>
<wpt lat="55.772192" lon="37.632814">
<time>27.06.2019, 16:24:55</time>
<name>0125.Большая Сухаревская пл., д.2 (ст. м. Сухаревская) [undefinedкм]</name>
<sym>Scenic Area</sym>
<extensions><color>#0088ff00</color></extensions>
</wpt>
<wpt lat="55.7914268" lon="37.5905396">
<time>27.06.2019, 16:24:55</time>
<name>0415.ул. Сущёвский Вал, д.2 [undefinedкм]</name>
<sym>Scenic Area</sym>
<extensions><color>#0088ff00</color></extensions>
</wpt>
<wpt lat="55.8434843" lon="37.6364267">
<time>27.06.2019, 16:24:55</time>
<name>0452.ст. м. Ботанический сад (ул. Вильгельма Пика) [undefinedкм]</name>
<sym>Scenic Area</sym>
<extensions><color>#0088ff00</color></extensions>
</wpt>
<wpt lat="55.8032637" lon="37.6155506">
<time>27.06.2019, 16:24:55</time>
<name>0423.ул. Шереметьевская, д.27 [undefinedкм]</name>
<sym>Scenic Area</sym>
<extensions><color>#0088ff00</color></extensions>
</wpt>
<wpt lat="55.7861479" lon="37.6225279">
<time>27.06.2019, 16:24:55</time>
<name>0431.Олимпийский пр-т, д.22 [undefinedкм]</name>
<sym>Scenic Area</sym>
<extensions><color>#0088ff00</color></extensions>
</wpt>
<wpt lat="55.7886534" lon="37.6290169">
<time>27.06.2019, 16:24:55</time>
<name>0432.ул. Щепкина, д.61/2, стр.22 [undefinedкм]</name>
<sym>Scenic Area</sym>
<extensions><color>#0088ff00</color></extensions>
</wpt>
<wpt lat="55.7804054" lon="37.6334722">
<time>27.06.2019, 16:24:55</time>
<name>0440.пр-т Мира, д.40 (рядом со ст. м. Проспект Мира (кольцевая)) [undefinedкм]</name>
<sym>Scenic Area</sym>
<extensions><color>#0088ff00</color></extensions>
</wpt>
<wpt lat="55.7865412" lon="37.6347031">
<time>27.06.2019, 16:24:55</time>
<name>0442.пр-т Мира, д.69, стр.1 [undefinedкм]</name>
<sym>Scenic Area</sym>
<extensions><color>#0088ff00</color></extensions>
</wpt>
<wpt lat="55.837238" lon="37.6365455">
<time>27.06.2019, 16:24:55</time>
<name>0451.ул. Сельскохозяйственная, д.17, к.1 [undefinedкм]</name>
<sym>Scenic Area</sym>
<extensions><color>#0088ff00</color></extensions>
</wpt>
<wpt lat="55.7835199" lon="37.5765806">
<time>27.06.2019, 16:24:55</time>
<name>0460.ул. Правды, д.4/19 [undefinedкм]</name>
<sym>Scenic Area</sym>
<extensions><color>#0088ff00</color></extensions>
</wpt>
<wpt lat="55.7720802" lon="37.6465038">
<time>27.06.2019, 16:24:55</time>
<name>0461.Орликов пер., д.3, стр.7  (со стороны пр-та Академика Сахарова) [undefinedкм]</name>
<sym>Scenic Area</sym>
<extensions><color>#0088ff00</color></extensions>
</wpt>
<wpt lat="55.7723539" lon="37.6548139">
<time>27.06.2019, 16:24:55</time>
<name>0462.Рязанский пр., Комсомольская пл., д.2 [undefinedкм]</name>
<sym>Scenic Area</sym>
<extensions><color>#0088ff00</color></extensions>
</wpt>
<wpt lat="55.7766712" lon="37.6591375">
<time>27.06.2019, 16:24:55</time>
<name>0483.Комсомольская пл., д.5 [undefinedкм]</name>
<sym>Scenic Area</sym>
<extensions><color>#0088ff00</color></extensions>
</wpt>
<wpt lat="55.7791071" lon="37.6225146">
<time>27.06.2019, 16:24:55</time>
<name>0430.Олимпийский пр-т, д.14 [undefinedкм]</name>
<sym>Scenic Area</sym>
<extensions><color>#0088ff00</color></extensions>
</wpt>
<wpt lat="55.712075" lon="37.587744">
<time>27.06.2019, 16:24:55</time>
<name>0317.Ленинский пр-т, д.33 [undefinedкм]</name>
<sym>Scenic Area</sym>
<extensions><color>#0088ff00</color></extensions>
</wpt>
<wpt lat="55.6880358" lon="37.572725">
<time>27.06.2019, 16:24:55</time>
<name>0351.ул. Дмитрия Ульянова, д.22, к.1 (ст. м. Академическая) [undefinedкм]</name>
<sym>Scenic Area</sym>
<extensions><color>#0088ff00</color></extensions>
</wpt>
<wpt lat="55.7761657" lon="37.6320952">
<time>27.06.2019, 16:24:55</time>
<name>0439.пр-т Мира, д.11 [undefinedкм]</name>
<sym>Scenic Area</sym>
<extensions><color>#0088ff00</color></extensions>
</wpt>
<wpt lat="55.7481479" lon="37.5393069">
<time>27.06.2019, 16:24:55</time>
<name>0250.Пресненская наб., д.6, стр.2 (Москва-Сити, башня Империя) [undefinedкм]</name>
<sym>Scenic Area</sym>
<extensions><color>#0088ff00</color></extensions>
</wpt>
<wpt lat="55.6636625" lon="37.6066403">
<time>27.06.2019, 16:24:55</time>
<name>0391.Нахимовский пр-т, д.11 (ст. м. Нахимовский пр-т, выход №4) [undefinedкм]</name>
<sym>Scenic Area</sym>
<extensions><color>#0088ff00</color></extensions>
</wpt>
<wpt lat="55.6794909" lon="37.5953863">
<time>27.06.2019, 16:24:55</time>
<name>0396.ул. Дмитрия Ульянова, д.46 [undefinedкм]</name>
<sym>Scenic Area</sym>
<extensions><color>#0088ff00</color></extensions>
</wpt>
<wpt lat="55.6667781" lon="37.5268164">
<time>27.06.2019, 16:24:55</time>
<name>0338.ул. Новаторов (пересечение с ул. Воронцовские Пруды) [undefinedкм]</name>
<sym>Scenic Area</sym>
<extensions><color>#0088ff00</color></extensions>
</wpt>
<wpt lat="55.6534724" lon="37.5807208">
<time>27.06.2019, 16:24:55</time>
<name>0326.ул. Каховка, д.10/12, к.1 [undefinedкм]</name>
<sym>Scenic Area</sym>
<extensions><color>#0088ff00</color></extensions>
</wpt>
<wpt lat="55.668303" lon="37.5341468">
<time>27.06.2019, 16:24:55</time>
<name>0337.ул. Академика Пилюгина, д.18 [undefinedкм]</name>
<sym>Scenic Area</sym>
<extensions><color>#0088ff00</color></extensions>
</wpt>
<wpt lat="55.6416745" lon="37.604728">
<time>27.06.2019, 16:24:55</time>
<name>0328.Балаклавский пр-т, д.16 (ст. м. Чертановская, выход №3) [undefinedкм]</name>
<sym>Scenic Area</sym>
<extensions><color>#0088ff00</color></extensions>
</wpt>
<wpt lat="55.7012679" lon="37.5775101">
<time>27.06.2019, 16:24:55</time>
<name>0307.ул. Вавилова, д.24 [undefinedкм]</name>
<sym>Scenic Area</sym>
<extensions><color>#0088ff00</color></extensions>
</wpt>
<wpt lat="55.723833" lon="37.565242">
<time>27.06.2019, 16:24:55</time>
<name>0208.ул. 10-летия Октября (напротив д.29, к.3, ст. м. Спортивная, выход №2) [undefinedкм]</name>
<sym>Scenic Area</sym>
<extensions><color>#0088ff00</color></extensions>
</wpt>
<wpt lat="55.7606867" lon="37.6248436">
<time>27.06.2019, 16:24:55</time>
<name>0028.ул. Пушечная, д.11 [undefinedкм]</name>
<sym>Scenic Area</sym>
<extensions><color>#0088ff00</color></extensions>
</wpt>
<wpt lat="55.700717" lon="37.545765">
<time>27.06.2019, 16:24:55</time>
<name>0301.пр-т Вернадского, ост. Университетский пр-т [undefinedкм]</name>
<sym>Scenic Area</sym>
<extensions><color>#0088ff00</color></extensions>
</wpt>
<wpt lat="55.708218" lon="37.576594">
<time>27.06.2019, 16:24:55</time>
<name>0345.ул. Косыгина, д.2, стр.19 [undefinedкм]</name>
<sym>Scenic Area</sym>
<extensions><color>#0088ff00</color></extensions>
</wpt>
<wpt lat="55.706876" lon="37.564743">
<time>27.06.2019, 16:24:55</time>
<name>0344.ул. Косыгина, д.8, стр.2 [undefinedкм]</name>
<sym>Scenic Area</sym>
<extensions><color>#0088ff00</color></extensions>
</wpt>
<wpt lat="55.691614" lon="37.562443">
<time>27.06.2019, 16:24:55</time>
<name>0350.ул. Вавилова, д.55/7 [undefinedкм]</name>
<sym>Scenic Area</sym>
<extensions><color>#0088ff00</color></extensions>
</wpt>
<wpt lat="55.678516" lon="37.561994">
<time>27.06.2019, 16:24:55</time>
<name>0362.Нахимовский пр-т, д.46 (ст. м. Профсоюзная, выход №3) [undefinedкм]</name>
<sym>Scenic Area</sym>
<extensions><color>#0088ff00</color></extensions>
</wpt>
<wpt lat="55.749635" lon="37.632794">
<time>27.06.2019, 16:24:55</time>
<name>0023.Москворецкая наб. (Китайгородский пр., д.9, стр.2) [undefinedкм]</name>
<sym>Scenic Area</sym>
<extensions><color>#0088ff00</color></extensions>
</wpt>
<wpt lat="55.7576991" lon="37.634929">
<time>27.06.2019, 16:24:55</time>
<name>0038.ул. Маросейка, д.9 [undefinedкм]</name>
<sym>Scenic Area</sym>
<extensions><color>#0088ff00</color></extensions>
</wpt>
<wpt lat="55.737812" lon="37.628275">
<time>27.06.2019, 16:24:55</time>
<name>0077.ул. Пятницкая, д.42 [undefinedкм]</name>
<sym>Scenic Area</sym>
<extensions><color>#0088ff00</color></extensions>
</wpt>
<wpt lat="55.7735332" lon="37.6086074">
<time>27.06.2019, 16:24:55</time>
<name>0119.ул. Краснопролетарская (напротив д.2/4, стр.3) [undefinedкм]</name>
<sym>Scenic Area</sym>
<extensions><color>#0088ff00</color></extensions>
</wpt>
<wpt lat="55.7362414" lon="37.6195157">
<time>27.06.2019, 16:24:55</time>
<name>0073.ул. Большая Полянка, д.33/41, стр.1 [undefinedкм]</name>
<sym>Scenic Area</sym>
<extensions><color>#0088ff00</color></extensions>
</wpt>
<wpt lat="55.7490298" lon="37.5622227">
<time>27.06.2019, 16:24:55</time>
<name>0246.Кутузовский пр-т, д.7/4, стр.1 [undefinedкм]</name>
<sym>Scenic Area</sym>
<extensions><color>#0088ff00</color></extensions>
</wpt>
<wpt lat="55.6712381" lon="37.5838691">
<time>27.06.2019, 16:24:55</time>
<name>0363.Нахимовский пр-т, д.24 [undefinedкм]</name>
<sym>Scenic Area</sym>
<extensions><color>#0088ff00</color></extensions>
</wpt>
<wpt lat="55.6836121" lon="37.5201069">
<time>27.06.2019, 16:24:55</time>
<name>0364.ул. Марии Ульяновой, д.16 [undefinedкм]</name>
<sym>Scenic Area</sym>
<extensions><color>#0088ff00</color></extensions>
</wpt>
<wpt lat="55.6787267" lon="37.5326129">
<time>27.06.2019, 16:24:55</time>
<name>0365.ул. Гарибальди, д.1А [undefinedкм]</name>
<sym>Scenic Area</sym>
<extensions><color>#0088ff00</color></extensions>
</wpt>
<wpt lat="55.6592363" lon="37.6080312">
<time>27.06.2019, 16:24:55</time>
<name>0368.Симферопольский б-р, д.4 [undefinedкм]</name>
<sym>Scenic Area</sym>
<extensions><color>#0088ff00</color></extensions>
</wpt>
<wpt lat="55.6649089" lon="37.5389143">
<time>27.06.2019, 16:24:55</time>
<name>0370.ул. Воронцовские Пруды, д.3 [undefinedкм]</name>
<sym>Scenic Area</sym>
<extensions><color>#0088ff00</color></extensions>
</wpt>
<wpt lat="55.6608021" lon="37.5595989">
<time>27.06.2019, 16:24:55</time>
<name>0371.ул. Новочерёмушкинская, д.71/32 [undefinedкм]</name>
<sym>Scenic Area</sym>
<extensions><color>#0088ff00</color></extensions>
</wpt>
<wpt lat="55.762079" lon="37.60962">
<time>27.06.2019, 16:24:55</time>
<name>0029.ул. Тверская, д.8 [undefinedкм]</name>
<sym>Scenic Area</sym>
<extensions><color>#0088ff00</color></extensions>
</wpt>
<wpt lat="55.699342" lon="37.523769">
<time>27.06.2019, 16:24:55</time>
<name>0357.Ломоносовский пр-т (дублёр), д.27 [undefinedкм]</name>
<sym>Scenic Area</sym>
<extensions><color>#0088ff00</color></extensions>
</wpt>
<wpt lat="55.763584" lon="37.59311">
<time>27.06.2019, 16:24:55</time>
<name>0043.Большой Патриарший пер., д.7 [undefinedкм]</name>
<sym>Scenic Area</sym>
<extensions><color>#0088ff00</color></extensions>
</wpt>
<wpt lat="55.6523999" lon="37.5964086">
<time>27.06.2019, 16:24:55</time>
<name>0373.ул. Азовская, д.24, к.2 (ст. м. Каховская, выход №2) [undefinedкм]</name>
<sym>Scenic Area</sym>
<extensions><color>#0088ff00</color></extensions>
</wpt>
<wpt lat="55.6512748" lon="37.5529893">
<time>27.06.2019, 16:24:55</time>
<name>0374.ул. Обручева, д.33А [undefinedкм]</name>
<sym>Scenic Area</sym>
<extensions><color>#0088ff00</color></extensions>
</wpt>
<wpt lat="55.6502405" lon="37.5639941">
<time>27.06.2019, 16:24:55</time>
<name>0375.ул. Обручева, д.65/54 [undefinedкм]</name>
<sym>Scenic Area</sym>
<extensions><color>#0088ff00</color></extensions>
</wpt>
<wpt lat="55.6450878" lon="37.5820766">
<time>27.06.2019, 16:24:55</time>
<name>0376.Балаклавский пр-т, д.34, к.1 [undefinedкм]</name>
<sym>Scenic Area</sym>
<extensions><color>#0088ff00</color></extensions>
</wpt>
<wpt lat="55.6477514" lon="37.5137244">
<time>27.06.2019, 16:24:55</time>
<name>0381.ул. Академика Волгина, д.21 [undefinedкм]</name>
<sym>Scenic Area</sym>
<extensions><color>#0088ff00</color></extensions>
</wpt>
<wpt lat="55.6440884" lon="37.4953587">
<time>27.06.2019, 16:24:55</time>
<name>0385.ул. Островитянова, д.7 [undefinedкм]</name>
<sym>Scenic Area</sym>
<extensions><color>#0088ff00</color></extensions>
</wpt>
<wpt lat="55.785259" lon="37.6163822">
<time>27.06.2019, 16:24:55</time>
<name>0420.ул. Советской Армии, д.2, стр.1 [undefinedкм]</name>
<sym>Scenic Area</sym>
<extensions><color>#0088ff00</color></extensions>
</wpt>
<wpt lat="55.7815506" lon="37.6317848">
<time>27.06.2019, 16:24:55</time>
<name>0441.пр-т Мира, д.41, стр.2 [undefinedкм]</name>
<sym>Scenic Area</sym>
<extensions><color>#0088ff00</color></extensions>
</wpt>
<wpt lat="55.8195275" lon="37.6393391">
<time>27.06.2019, 16:24:55</time>
<name>0444.пр-т Мира, д.111 (ст. м. ВДНХ, выход к Звёздному бульвару) [undefinedкм]</name>
<sym>Scenic Area</sym>
<extensions><color>#0088ff00</color></extensions>
</wpt>
<wpt lat="55.8277664" lon="37.647529">
<time>27.06.2019, 16:24:55</time>
<name>0445.ул. Сергея Эйзенштейна, д.1 [undefinedкм]</name>
<sym>Scenic Area</sym>
<extensions><color>#0088ff00</color></extensions>
</wpt>
<wpt lat="55.8339685" lon="37.6541501">
<time>27.06.2019, 16:24:55</time>
<name>0446.пр-т Мира, д.163 [undefinedкм]</name>
<sym>Scenic Area</sym>
<extensions><color>#0088ff00</color></extensions>
</wpt>
<wpt lat="55.8217153" lon="37.623526">
<time>27.06.2019, 16:24:55</time>
<name>0470.ул. Академика Королёва, д.8А [undefinedкм]</name>
<sym>Scenic Area</sym>
<extensions><color>#0088ff00</color></extensions>
</wpt>
<wpt lat="55.8205976" lon="37.5807216">
<time>27.06.2019, 16:24:55</time>
<name>0480.ул. Яблочкова, д.18 [undefinedкм]</name>
<sym>Scenic Area</sym>
<extensions><color>#0088ff00</color></extensions>
</wpt>
<wpt lat="55.8278585" lon="37.5805768">
<time>27.06.2019, 16:24:55</time>
<name>0481.ул. Милашенкова, д.12Д [undefinedкм]</name>
<sym>Scenic Area</sym>
<extensions><color>#0088ff00</color></extensions>
</wpt>
<wpt lat="55.8133394" lon="37.5942708">
<time>27.06.2019, 16:24:55</time>
<name>0482.ул. Руставели, д.12/13 [undefinedкм]</name>
<sym>Scenic Area</sym>
<extensions><color>#0088ff00</color></extensions>
</wpt>
<wpt lat="55.6558941" lon="37.4954392">
<time>27.06.2019, 16:24:55</time>
<name>0389.ул. 26-ти Бакинских Комиссаров, д.2Б [undefinedкм]</name>
<sym>Scenic Area</sym>
<extensions><color>#0088ff00</color></extensions>
</wpt>
<wpt lat="55.8302838" lon="37.6010653">
<time>27.06.2019, 16:24:55</time>
<name>0464.ул. Ботаническая, д.4, стр.6 [undefinedкм]</name>
<sym>Scenic Area</sym>
<extensions><color>#0088ff00</color></extensions>
</wpt>
<wpt lat="55.8243764" lon="37.617075">
<time>27.06.2019, 16:24:55</time>
<name>0465.1-я Останкинская ул., д.1 [undefinedкм]</name>
<sym>Scenic Area</sym>
<extensions><color>#0088ff00</color></extensions>
</wpt>
<wpt lat="55.825363" lon="37.6391911">
<time>27.06.2019, 16:24:55</time>
<name>0466.Продольный пр-д (у главного входа ВДНХ) [undefinedкм]</name>
<sym>Scenic Area</sym>
<extensions><color>#0088ff00</color></extensions>
</wpt>
<wpt lat="55.8189299" lon="37.6159792">
<time>27.06.2019, 16:24:55</time>
<name>0469.ул. Академика Королёва, д.15, к.2 [undefinedкм]</name>
<sym>Scenic Area</sym>
<extensions><color>#0088ff00</color></extensions>
</wpt>
<wpt lat="55.7456921" lon="37.6265178">
<time>27.06.2019, 16:24:55</time>
<name>0080.ул. Пятницкая, д.2/38 [undefinedкм]</name>
<sym>Scenic Area</sym>
<extensions><color>#0088ff00</color></extensions>
</wpt>
<wpt lat="55.7398418" lon="37.6333164">
<time>27.06.2019, 16:24:55</time>
<name>0081.ул. Большая Татарская, д.19/13 [undefinedкм]</name>
<sym>Scenic Area</sym>
<extensions><color>#0088ff00</color></extensions>
</wpt>
<wpt lat="55.7373622" lon="37.6352882">
<time>27.06.2019, 16:24:55</time>
<name>0084.ул. Большая Татарская, д.35 [undefinedкм]</name>
<sym>Scenic Area</sym>
<extensions><color>#0088ff00</color></extensions>
</wpt>
<wpt lat="55.7483533" lon="37.645458">
<time>27.06.2019, 16:24:55</time>
<name>0085.Котельническая наб., д.1 [undefinedкм]</name>
<sym>Scenic Area</sym>
<extensions><color>#0088ff00</color></extensions>
</wpt>
<wpt lat="55.7617374" lon="37.6331175">
<time>27.06.2019, 16:24:55</time>
<name>0060.ул. Мясницкая, д.11 [undefinedкм]</name>
<sym>Scenic Area</sym>
<extensions><color>#0088ff00</color></extensions>
</wpt>
<wpt lat="55.6527248" lon="37.5192587">
<time>27.06.2019, 16:24:55</time>
<name>0390.ул. Академика Волгина, д.6 [undefinedкм]</name>
<sym>Scenic Area</sym>
<extensions><color>#0088ff00</color></extensions>
</wpt>
<wpt lat="55.6565141" lon="37.539523">
<time>27.06.2019, 16:24:55</time>
<name>0335.ул. Профсоюзная, д.82, к.1 (ст. м. Калужская) [undefinedкм]</name>
<sym>Scenic Area</sym>
<extensions><color>#0088ff00</color></extensions>
</wpt>
<wpt lat="55.6771438" lon="37.5629419">
<time>27.06.2019, 16:24:55</time>
<name>0394.Нахимовский пр-т, д.51/21 (ст. м. Профсоюзная, выход №7) [undefinedкм]</name>
<sym>Scenic Area</sym>
<extensions><color>#0088ff00</color></extensions>
</wpt>
<wpt lat="55.6651369" lon="37.5710478">
<time>27.06.2019, 16:24:55</time>
<name>0309.ул. Болотниковская (парк им. 70-ти летия Победы) [undefinedкм]</name>
<sym>Scenic Area</sym>
<extensions><color>#0088ff00</color></extensions>
</wpt>
<wpt lat="55.7806984" lon="37.6079968">
<time>27.06.2019, 16:24:55</time>
<name>0407.ул. Селезнёвская, д.28 [undefinedкм]</name>
<sym>Scenic Area</sym>
<extensions><color>#0088ff00</color></extensions>
</wpt>
<wpt lat="55.778327" lon="37.6089126">
<time>27.06.2019, 16:24:55</time>
<name>0410.2-й Щемиловский пер., д.14 [undefinedкм]</name>
<sym>Scenic Area</sym>
<extensions><color>#0088ff00</color></extensions>
</wpt>
<wpt lat="55.6530518" lon="37.6180912">
<time>27.06.2019, 16:24:55</time>
<name>0398.Чонгарский б-р, д.1, к.1 (ст. м. Варшавская, выход №2) [undefinedкм]</name>
<sym>Scenic Area</sym>
<extensions><color>#0088ff00</color></extensions>
</wpt>
<wpt lat="55.7924677" lon="37.6023012">
<time>27.06.2019, 16:24:55</time>
<name>0416.ул. Сущёвский Вал, д.16, стр.1 [undefinedкм]</name>
<sym>Scenic Area</sym>
<extensions><color>#0088ff00</color></extensions>
</wpt>
<wpt lat="55.8459731" lon="37.5897749">
<time>27.06.2019, 16:24:55</time>
<name>0453.ст. м. Владыкино [undefinedкм]</name>
<sym>Scenic Area</sym>
<extensions><color>#0088ff00</color></extensions>
</wpt>
<wpt lat="55.8191407" lon="37.5741987">
<time>27.06.2019, 16:24:55</time>
<name>0485.Дмитровское ш., д.13А, к.3 (ст. м. Тимирязевская) [undefinedкм]</name>
<sym>Scenic Area</sym>
<extensions><color>#0088ff00</color></extensions>
</wpt>
<wpt lat="55.731981" lon="37.6048252">
<time>27.06.2019, 16:24:55</time>
<name>0157.ул. Крымский Вал, д.9, стр.1 (напротив входа в Парк Горького) [undefinedкм]</name>
<sym>Scenic Area</sym>
<extensions><color>#0088ff00</color></extensions>
</wpt>
<wpt lat="55.7553104" lon="37.5999825">
<time>27.06.2019, 16:24:55</time>
<name>0005.Никитский б-р (напротив д.11/12, стр.3) [undefinedкм]</name>
<sym>Scenic Area</sym>
<extensions><color>#0088ff00</color></extensions>
</wpt>
<wpt lat="55.763247" lon="37.641671">
<time>27.06.2019, 16:24:55</time>
<name>0017.Чистопрудный б-р (напротив  д.8, стр.1) [undefinedкм]</name>
<sym>Scenic Area</sym>
<extensions><color>#0088ff00</color></extensions>
</wpt>
<wpt lat="55.6533607" lon="37.5006237">
<time>27.06.2019, 16:24:55</time>
<name>0380.ул. Миклухо-Маклая, д.6 [undefinedкм]</name>
<sym>Scenic Area</sym>
<extensions><color>#0088ff00</color></extensions>
</wpt>
<wpt lat="55.70674" lon="37.58531">
<time>27.06.2019, 16:24:55</time>
<name>0323.ст. м. Ленинский проспект (южный вестибюль) [undefinedкм]</name>
<sym>Scenic Area</sym>
<extensions><color>#0088ff00</color></extensions>
</wpt>
<wpt lat="55.76728" lon="37.641517">
<time>27.06.2019, 16:24:55</time>
<name>0049.ул. Мясницкая, д.39, стр.1 [undefinedкм]</name>
<sym>Scenic Area</sym>
<extensions><color>#0088ff00</color></extensions>
</wpt>
<wpt lat="55.7082873" lon="37.657647">
<time>27.06.2019, 16:24:55</time>
<name>0603.ул. Мастеркова, д.3 (ст. м. Автозаводская) [undefinedкм]</name>
<sym>Scenic Area</sym>
<extensions><color>#0088ff00</color></extensions>
</wpt>
<wpt lat="55.792512" lon="37.6158903">
<time>27.06.2019, 16:24:55</time>
<name>0422.ул. Советской Армии, д.17/52 [undefinedкм]</name>
<sym>Scenic Area</sym>
<extensions><color>#0088ff00</color></extensions>
</wpt>
<wpt lat="55.776466" lon="37.5959992">
<time>27.06.2019, 16:24:55</time>
<name>0404.ул. Чаянова, д.15 [undefinedкм]</name>
<sym>Scenic Area</sym>
<extensions><color>#0088ff00</color></extensions>
</wpt>
<wpt lat="55.7591806" lon="37.5874544">
<time>27.06.2019, 16:24:55</time>
<name>0004.ул. Малая Никитская, д.24, стр.2 [undefinedкм]</name>
<sym>Scenic Area</sym>
<extensions><color>#0088ff00</color></extensions>
</wpt>
<wpt lat="55.776646" lon="37.6182931">
<time>27.06.2019, 16:24:55</time>
<name>0412.ул. Самотечная, д.9 [undefinedкм]</name>
<sym>Scenic Area</sym>
<extensions><color>#0088ff00</color></extensions>
</wpt>
<wpt lat="55.8224303" lon="37.6414493">
<time>27.06.2019, 16:24:55</time>
<name>0475.Продольный пр-д, д.115А (ст. м. ВДНХ, северный вестибюль) [undefinedкм]</name>
<sym>Scenic Area</sym>
<extensions><color>#0088ff00</color></extensions>
</wpt>
<wpt lat="55.759165" lon="37.616547">
<time>27.06.2019, 16:24:55</time>
<name>0031.ул. Большая Дмитровка, д.2 [undefinedкм]</name>
<sym>Scenic Area</sym>
<extensions><color>#0088ff00</color></extensions>
</wpt>
<wpt lat="55.7464818" lon="37.6101276">
<time>27.06.2019, 16:24:55</time>
<name>0022.Кремлёвская наб., д.1 [undefinedкм]</name>
<sym>Scenic Area</sym>
<extensions><color>#0088ff00</color></extensions>
</wpt>
<wpt lat="55.7724956" lon="37.6520953">
<time>27.06.2019, 16:24:55</time>
<name>0459.ул. Каланчёвская, д.15А [undefinedкм]</name>
<sym>Scenic Area</sym>
<extensions><color>#0088ff00</color></extensions>
</wpt>
<wpt lat="55.7468663" lon="37.5997037">
<time>27.06.2019, 16:24:55</time>
<name>0002.Гоголевский б-р (напротив д.17, стр.1) [undefinedкм]</name>
<sym>Scenic Area</sym>
<extensions><color>#0088ff00</color></extensions>
</wpt>
<wpt lat="55.678373" lon="37.5745946">
<time>27.06.2019, 16:24:55</time>
<name>0305.ул. Кржижановского, вл.22, стр.2 [undefinedкм]</name>
<sym>Scenic Area</sym>
<extensions><color>#0088ff00</color></extensions>
</wpt>
<wpt lat="55.759038" lon="37.642574">
<time>27.06.2019, 16:24:55</time>
<name>0039.ул. Покровка, д.7/9-11 [undefinedкм]</name>
<sym>Scenic Area</sym>
<extensions><color>#0088ff00</color></extensions>
</wpt>
<wpt lat="55.750628" lon="37.654944">
<time>27.06.2019, 16:24:55</time>
<name>0058.Серебряническая наб., д.29 [undefinedкм]</name>
<sym>Scenic Area</sym>
<extensions><color>#0088ff00</color></extensions>
</wpt>
<wpt lat="55.7364956" lon="37.645943">
<time>27.06.2019, 16:24:55</time>
<name>0072.Космодамианская наб., д.46/50 [undefinedкм]</name>
<sym>Scenic Area</sym>
<extensions><color>#0088ff00</color></extensions>
</wpt>
<wpt lat="55.706203" lon="37.535522">
<time>27.06.2019, 16:24:55</time>
<name>0349.Университетская пл. (напротив ГЗ МГУ) [undefinedкм]</name>
<sym>Scenic Area</sym>
<extensions><color>#0088ff00</color></extensions>
</wpt>
<wpt lat="55.642252" lon="37.526472">
<time>27.06.2019, 16:24:55</time>
<name>0382.ул. Профсоюзная, д.91 (ст. м. Беляево, южный вестибюль) [undefinedкм]</name>
<sym>Scenic Area</sym>
<extensions><color>#0088ff00</color></extensions>
</wpt>
<wpt lat="55.642636" lon="37.541377">
<time>27.06.2019, 16:24:55</time>
<name>0379.ул. Введенского, д.13А [undefinedкм]</name>
<sym>Scenic Area</sym>
<extensions><color>#0088ff00</color></extensions>
</wpt>
<wpt lat="55.706491" lon="37.554776">
<time>27.06.2019, 16:24:55</time>
<name>0343.ул. Косыгина, д.18, стр.1 [undefinedкм]</name>
<sym>Scenic Area</sym>
<extensions><color>#0088ff00</color></extensions>
</wpt>
<wpt lat="55.7032184" lon="37.5731731">
<time>27.06.2019, 16:24:55</time>
<name>0318.Ленинский пр-т, д.45 [undefinedкм]</name>
<sym>Scenic Area</sym>
<extensions><color>#0088ff00</color></extensions>
</wpt>
<wpt lat="55.6841473" lon="37.540695">
<time>27.06.2019, 16:24:55</time>
<name>0321.Ленинский пр-т, д.79 [undefinedкм]</name>
<sym>Scenic Area</sym>
<extensions><color>#0088ff00</color></extensions>
</wpt>
<wpt lat="55.6843417" lon="37.5701523">
<time>27.06.2019, 16:24:55</time>
<name>0330.ул. Профсоюзная, д.7/12 [undefinedкм]</name>
<sym>Scenic Area</sym>
<extensions><color>#0088ff00</color></extensions>
</wpt>
<wpt lat="55.6736328" lon="37.557668">
<time>27.06.2019, 16:24:55</time>
<name>0331.ул. Профсоюзная, д.46, к.1 [undefinedкм]</name>
<sym>Scenic Area</sym>
<extensions><color>#0088ff00</color></extensions>
</wpt>
<wpt lat="55.6689814" lon="37.5529925">
<time>27.06.2019, 16:24:55</time>
<name>0332.ул. Профсоюзная, д.58/32, к.2 (ст. м. Новые Черёмушки, выход №3) [undefinedкм]</name>
<sym>Scenic Area</sym>
<extensions><color>#0088ff00</color></extensions>
</wpt>
<wpt lat="55.6560575" lon="37.5397093">
<time>27.06.2019, 16:24:55</time>
<name>0333.ул. Профсоюзная, д.61А (ст. м. Калужская) [undefinedкм]</name>
<sym>Scenic Area</sym>
<extensions><color>#0088ff00</color></extensions>
</wpt>
<wpt lat="55.8086515" lon="37.636561">
<time>27.06.2019, 16:24:55</time>
<name>0443.пр-т Мира, д.97 [undefinedкм]</name>
<sym>Scenic Area</sym>
<extensions><color>#0088ff00</color></extensions>
</wpt>
<wpt lat="55.8218255" lon="37.6095579">
<time>27.06.2019, 16:24:55</time>
<name>0471.ул. Академика Королёва, д.12Б [undefinedкм]</name>
<sym>Scenic Area</sym>
<extensions><color>#0088ff00</color></extensions>
</wpt>
<wpt lat="55.8154706" lon="37.6299313">
<time>27.06.2019, 16:24:55</time>
<name>0472.Звёздный б-р, д.18/1 [undefinedкм]</name>
<sym>Scenic Area</sym>
<extensions><color>#0088ff00</color></extensions>
</wpt>
<wpt lat="55.7935234" lon="37.6168972">
<time>27.06.2019, 16:24:55</time>
<name>0417.ул. Шереметьевская, д.2 (ст. м. Марьина Роща, выход №5) [undefinedкм]</name>
<sym>Scenic Area</sym>
<extensions><color>#0088ff00</color></extensions>
</wpt>
<wpt lat="55.7521422" lon="37.5409806">
<time>27.06.2019, 16:24:55</time>
<name>0251.1-й Красногвардейский пр-д, д.13, стр.1 [undefinedкм]</name>
<sym>Scenic Area</sym>
<extensions><color>#0088ff00</color></extensions>
</wpt>
<wpt lat="55.74229" lon="37.65385">
<time>27.06.2019, 16:24:55</time>
<name>0146.ул. Верхняя Радищевская, д.22 (ст. м. Таганская) [undefinedкм]</name>
<sym>Scenic Area</sym>
<extensions><color>#0088ff00</color></extensions>
</wpt>
<wpt lat="55.6748694" lon="37.5708842">
<time>27.06.2019, 16:24:55</time>
<name>0393.Нахимовский пр-т, д.45, стр.1 [undefinedкм]</name>
<sym>Scenic Area</sym>
<extensions><color>#0088ff00</color></extensions>
</wpt>
<wpt lat="55.7654099" lon="37.5719413">
<time>27.06.2019, 16:24:55</time>
<name>0236.ул. Малая Грузинская, д.19/2 [undefinedкм]</name>
<sym>Scenic Area</sym>
<extensions><color>#0088ff00</color></extensions>
</wpt>
<wpt lat="55.6589469" lon="37.5145855">
<time>27.06.2019, 16:24:55</time>
<name>0339.ул. Обручева, д.16, к.1 [undefinedкм]</name>
<sym>Scenic Area</sym>
<extensions><color>#0088ff00</color></extensions>
</wpt>
<wpt lat="55.687648" lon="37.573843">
<time>27.06.2019, 16:24:55</time>
<name>0397.ул. Дмитрия Ульянова, д.24 (ст. м. Академическая) [undefinedкм]</name>
<sym>Scenic Area</sym>
<extensions><color>#0088ff00</color></extensions>
</wpt>
<wpt lat="55.789152" lon="37.679857">
<time>27.06.2019, 16:24:55</time>
<name>0489.ст. м. Сокольники [undefinedкм]</name>
<sym>Scenic Area</sym>
<extensions><color>#0088ff00</color></extensions>
</wpt>
<wpt lat="55.8126995" lon="37.5880136">
<time>27.06.2019, 16:24:55</time>
<name>0484.ул. Руставели (напротив д.6, к.5) [undefinedкм]</name>
<sym>Scenic Area</sym>
<extensions><color>#0088ff00</color></extensions>
</wpt>
<wpt lat="55.80364" lon="37.53454">
<time>27.06.2019, 16:24:55</time>
<name>0528.ул. Черняховского, д.4А [undefinedкм]</name>
<sym>Scenic Area</sym>
<extensions><color>#0088ff00</color></extensions>
</wpt>
<wpt lat="55.6760559" lon="37.5372313">
<time>27.06.2019, 16:24:55</time>
<name>0329.ул. Гарибальди, д.6, к.1 [undefinedкм]</name>
<sym>Scenic Area</sym>
<extensions><color>#0088ff00</color></extensions>
</wpt>
<wpt lat="55.653513" lon="37.6057778">
<time>27.06.2019, 16:24:55</time>
<name>0399.Симферопольский б-р, д.15, к.5 [undefinedкм]</name>
<sym>Scenic Area</sym>
<extensions><color>#0088ff00</color></extensions>
</wpt>
<wpt lat="55.7015839" lon="37.579688">
<time>27.06.2019, 16:24:55</time>
<name>0308.ул. Вавилова, д.17 [undefinedкм]</name>
<sym>Scenic Area</sym>
<extensions><color>#0088ff00</color></extensions>
</wpt>
<wpt lat="55.7233339" lon="37.5300029">
<time>27.06.2019, 16:24:55</time>
<name>0342.ул. Мосфильмовская, д.1, стр.4 [undefinedкм]</name>
<sym>Scenic Area</sym>
<extensions><color>#0088ff00</color></extensions>
</wpt>
<wpt lat="55.7921729" lon="37.6779952">
<time>27.06.2019, 16:24:55</time>
<name>0487.Сокольническая пл., д.7 [undefinedкм]</name>
<sym>Scenic Area</sym>
<extensions><color>#0088ff00</color></extensions>
</wpt>
<wpt lat="55.7925135" lon="37.6599869">
<time>27.06.2019, 16:24:55</time>
<name>0478.ул. Сокольнический Вал, д.8 [undefinedкм]</name>
<sym>Scenic Area</sym>
<extensions><color>#0088ff00</color></extensions>
</wpt>
<wpt lat="55.7940252" lon="37.6944615">
<time>27.06.2019, 16:24:55</time>
<name>0491.ул. Стромынка, д.13 (пересеч. с ул. Короленко) [undefinedкм]</name>
<sym>Scenic Area</sym>
<extensions><color>#0088ff00</color></extensions>
</wpt>
<wpt lat="55.7865463" lon="37.6759952">
<time>27.06.2019, 16:24:55</time>
<name>0488.ул. Маленковская, д.25 [undefinedкм]</name>
<sym>Scenic Area</sym>
<extensions><color>#0088ff00</color></extensions>
</wpt>
<wpt lat="55.7943402" lon="37.6994467">
<time>27.06.2019, 16:24:55</time>
<name>0492.ул. Стромынка, д.20 (Технологический университет) [undefinedкм]</name>
<sym>Scenic Area</sym>
<extensions><color>#0088ff00</color></extensions>
</wpt>
<wpt lat="55.8016402" lon="37.6363469">
<time>27.06.2019, 16:24:55</time>
<name>0434.пр-т Мира, д.102, к.2 [undefinedкм]</name>
<sym>Scenic Area</sym>
<extensions><color>#0088ff00</color></extensions>
</wpt>
<wpt lat="55.7798124" lon="37.6661093">
<time>27.06.2019, 16:24:55</time>
<name>0455.ул. Краснопрудная, д.13А (ст. м. Красносельская) [undefinedкм]</name>
<sym>Scenic Area</sym>
<extensions><color>#0088ff00</color></extensions>
</wpt>
<wpt lat="55.807908" lon="37.6376553">
<time>27.06.2019, 16:24:55</time>
<name>0435.пр-т Мира, д.114Б, стр.2 (ст. м. Алексеевская) [undefinedкм]</name>
<sym>Scenic Area</sym>
<extensions><color>#0088ff00</color></extensions>
</wpt>
<wpt lat="55.772242" lon="37.6788565">
<time>27.06.2019, 16:24:55</time>
<name>0457.ул. Бауманская, д.33/2 (ст. м. Бауманская) [undefinedкм]</name>
<sym>Scenic Area</sym>
<extensions><color>#0088ff00</color></extensions>
</wpt>
<wpt lat="55.7922984" lon="37.635781">
<time>27.06.2019, 16:24:55</time>
<name>0433.пр-т Мира, д.92, стр.2 (ст. м. Рижская) [undefinedкм]</name>
<sym>Scenic Area</sym>
<extensions><color>#0088ff00</color></extensions>
</wpt>
<wpt lat="55.7209237" lon="37.6220242">
<time>27.06.2019, 16:24:55</time>
<name>0262.ул. Люсиновская, д.48/50, к.10 (пересеч. с ул. Павла Андреева) [undefinedкм]</name>
<sym>Scenic Area</sym>
<extensions><color>#0088ff00</color></extensions>
</wpt>
<wpt lat="55.744008" lon="37.615425">
<time>27.06.2019, 16:24:55</time>
<name>0082.Болотная пл. (напротив к/т Ударник) [undefinedкм]</name>
<sym>Scenic Area</sym>
<extensions><color>#0088ff00</color></extensions>
</wpt>
<wpt lat="55.7273527" lon="37.6197354">
<time>27.06.2019, 16:24:55</time>
<name>0261.4-й Добрынинский пер., д.2/10 [undefinedкм]</name>
<sym>Scenic Area</sym>
<extensions><color>#0088ff00</color></extensions>
</wpt>
<wpt lat="55.7888271" lon="37.663779">
<time>27.06.2019, 16:24:55</time>
<name>0477.3-я Рыбинская ул., д.30 [undefinedкм]</name>
<sym>Scenic Area</sym>
<extensions><color>#0088ff00</color></extensions>
</wpt>
<wpt lat="55.8063388" lon="37.5382933">
<time>27.06.2019, 16:24:55</time>
<name>0527.ул. Планетная, д.49 [undefinedкм]</name>
<sym>Scenic Area</sym>
<extensions><color>#0088ff00</color></extensions>
</wpt>
<wpt lat="55.7779297" lon="37.5212052">
<time>27.06.2019, 16:24:55</time>
<name>0500.Хорошёвское ш., д.82 (ст. м. Полежаевская) [undefinedкм]</name>
<sym>Scenic Area</sym>
<extensions><color>#0088ff00</color></extensions>
</wpt>
<wpt lat="55.757313" lon="37.647211">
<time>27.06.2019, 16:24:55</time>
<name>0019.Покровский б-р (напротив д.8, стр.1) [undefinedкм]</name>
<sym>Scenic Area</sym>
<extensions><color>#0088ff00</color></extensions>
</wpt>
<wpt lat="55.759361" lon="37.612442">
<time>27.06.2019, 16:24:55</time>
<name>0030.Камергерский пер., д.4 [undefinedкм]</name>
<sym>Scenic Area</sym>
<extensions><color>#0088ff00</color></extensions>
</wpt>
<wpt lat="55.6345077" lon="37.520142">
<time>27.06.2019, 16:24:55</time>
<name>0386.ул. Островитянова, д.29/120 (ст. м. Коньково, выход №8) [undefinedкм]</name>
<sym>Scenic Area</sym>
<extensions><color>#0088ff00</color></extensions>
</wpt>
<wpt lat="55.7798721" lon="37.6002618">
<time>27.06.2019, 16:24:55</time>
<name>0406.ул. Новослободская, д.11, стр.1 [undefinedкм]</name>
<sym>Scenic Area</sym>
<extensions><color>#0088ff00</color></extensions>
</wpt>
<wpt lat="55.7460166" lon="37.5757323">
<time>27.06.2019, 16:24:55</time>
<name>0240.Смоленская наб., д.2 [undefinedкм]</name>
<sym>Scenic Area</sym>
<extensions><color>#0088ff00</color></extensions>
</wpt>
<wpt lat="55.7540692" lon="37.5605165">
<time>27.06.2019, 16:24:55</time>
<name>0226.Краснопресненская наб., д.10, стр.5 [undefinedкм]</name>
<sym>Scenic Area</sym>
<extensions><color>#0088ff00</color></extensions>
</wpt>
<wpt lat="55.7610338" lon="37.6571565">
<time>27.06.2019, 16:24:55</time>
<name>0138.ул. Земляной Вал, д.14/16, стр.1 [undefinedкм]</name>
<sym>Scenic Area</sym>
<extensions><color>#0088ff00</color></extensions>
</wpt>
<wpt lat="55.7331476" lon="37.5517684">
<time>27.06.2019, 16:24:55</time>
<name>0243.Бережковская наб., д.20, стр.19 [undefinedкм]</name>
<sym>Scenic Area</sym>
<extensions><color>#0088ff00</color></extensions>
</wpt>
<wpt lat="55.748965" lon="37.5465367">
<time>27.06.2019, 16:24:55</time>
<name>0224.Краснопресненская наб., д.14, стр.1 [undefinedкм]</name>
<sym>Scenic Area</sym>
<extensions><color>#0088ff00</color></extensions>
</wpt>
<wpt lat="55.7383154" lon="37.5861519">
<time>27.06.2019, 16:24:55</time>
<name>0102.Зубовская пл., д.3, стр.1 [undefinedкм]</name>
<sym>Scenic Area</sym>
<extensions><color>#0088ff00</color></extensions>
</wpt>
<wpt lat="55.7566653" lon="37.6046504">
<time>27.06.2019, 16:24:55</time>
<name>0027.ул. Большая Никитская (напротив д.13) [undefinedкм]</name>
<sym>Scenic Area</sym>
<extensions><color>#0088ff00</color></extensions>
</wpt>
<wpt lat="55.730772" lon="37.612528">
<time>27.06.2019, 16:24:55</time>
<name>0059.ул. Большая Якиманка, д.16 (ст. м. Октябрьская (радиальная)) [undefinedкм]</name>
<sym>Scenic Area</sym>
<extensions><color>#0088ff00</color></extensions>
</wpt>
<wpt lat="55.7703931" lon="37.6429131">
<time>27.06.2019, 16:24:55</time>
<name>0128.ул. Садовая-Спасская (напротив д.26) [undefinedкм]</name>
<sym>Scenic Area</sym>
<extensions><color>#0088ff00</color></extensions>
</wpt>
<wpt lat="55.7724736" lon="37.5730793">
<time>27.06.2019, 16:24:55</time>
<name>0230.ул. Малая Грузинская, д.41 [undefinedкм]</name>
<sym>Scenic Area</sym>
<extensions><color>#0088ff00</color></extensions>
</wpt>
<wpt lat="55.7671544" lon="37.6641747">
<time>27.06.2019, 16:24:55</time>
<name>0458.ул. Старая Басманная, д.21/4, стр.1 [undefinedкм]</name>
<sym>Scenic Area</sym>
<extensions><color>#0088ff00</color></extensions>
</wpt>
<wpt lat="55.762772" lon="37.563289">
<time>27.06.2019, 16:24:55</time>
<name>0221.ул. Красная Пресня, д.31 [undefinedкм]</name>
<sym>Scenic Area</sym>
<extensions><color>#0088ff00</color></extensions>
</wpt>
<wpt lat="55.763407" lon="37.61731">
<time>27.06.2019, 16:24:55</time>
<name>0033.Столешников пер. (напротив д.11) [undefinedкм]</name>
<sym>Scenic Area</sym>
<extensions><color>#0088ff00</color></extensions>
</wpt>
<wpt lat="55.755955" lon="37.55125">
<time>27.06.2019, 16:24:55</time>
<name>0223.ул. Мантулинская, д.5, стр.21 [undefinedкм]</name>
<sym>Scenic Area</sym>
<extensions><color>#0088ff00</color></extensions>
</wpt>
<wpt lat="55.75685" lon="37.558939">
<time>27.06.2019, 16:24:55</time>
<name>0222.ул. Мантулинская, д.2 [undefinedкм]</name>
<sym>Scenic Area</sym>
<extensions><color>#0088ff00</color></extensions>
</wpt>
<wpt lat="55.6452564" lon="37.6192664">
<time>27.06.2019, 16:24:55</time>
<name>0388.Варшавское ш., д.100 [undefinedкм]</name>
<sym>Scenic Area</sym>
<extensions><color>#0088ff00</color></extensions>
</wpt>
<wpt lat="55.767711" lon="37.587921">
<time>27.06.2019, 16:24:55</time>
<name>0233.ул. Гашека, д.2, стр.1 [undefinedкм]</name>
<sym>Scenic Area</sym>
<extensions><color>#0088ff00</color></extensions>
</wpt>
<wpt lat="55.6845728" lon="37.5828562">
<time>27.06.2019, 16:24:55</time>
<name>0395.ул. Дмитрия Ульянова, д.32А [undefinedкм]</name>
<sym>Scenic Area</sym>
<extensions><color>#0088ff00</color></extensions>
</wpt>
<wpt lat="55.659118" lon="37.5942492">
<time>27.06.2019, 16:24:55</time>
<name>0325.ул. Болотниковская, д.34 [undefinedкм]</name>
<sym>Scenic Area</sym>
<extensions><color>#0088ff00</color></extensions>
</wpt>
<wpt lat="55.69062" lon="37.550726">
<time>27.06.2019, 16:24:55</time>
<name>0319.Ленинский пр-т, д.69 [undefinedкм]</name>
<sym>Scenic Area</sym>
<extensions><color>#0088ff00</color></extensions>
</wpt>
<wpt lat="55.710801" lon="37.622305">
<time>27.06.2019, 16:24:55</time>
<name>0272.ул. Большая Тульская, д.13 [undefinedкм]</name>
<sym>Scenic Area</sym>
<extensions><color>#0088ff00</color></extensions>
</wpt>
<wpt lat="55.730521" lon="37.629933">
<time>27.06.2019, 16:24:55</time>
<name>0150.ул. Валовая, д.20 [undefinedкм]</name>
<sym>Scenic Area</sym>
<extensions><color>#0088ff00</color></extensions>
</wpt>
<wpt lat="55.740264" lon="37.576753">
<time>27.06.2019, 16:24:55</time>
<name>0244.ул. Плющиха, д.39 [undefinedкм]</name>
<sym>Scenic Area</sym>
<extensions><color>#0088ff00</color></extensions>
</wpt>
<wpt lat="55.698436" lon="37.528489">
<time>27.06.2019, 16:24:55</time>
<name>0358.Ломоносовский пр-т (дублёр), пересечение с ул. Лебедева [undefinedкм]</name>
<sym>Scenic Area</sym>
<extensions><color>#0088ff00</color></extensions>
</wpt>
<wpt lat="55.701742" lon="37.522672">
<time>27.06.2019, 16:24:55</time>
<name>0356.Ломоносовский пр-т (дублёр), пересечение с ул. Менделеева [undefinedкм]</name>
<sym>Scenic Area</sym>
<extensions><color>#0088ff00</color></extensions>
</wpt>
<wpt lat="55.6716545" lon="37.6090521">
<time>27.06.2019, 16:24:55</time>
<name>0353.ул. Криворожская, д.33Г [undefinedкм]</name>
<sym>Scenic Area</sym>
<extensions><color>#0088ff00</color></extensions>
</wpt>
<wpt lat="55.73311" lon="37.58823">
<time>27.06.2019, 16:24:55</time>
<name>0252.ул. Льва Толстого, д.14А [undefinedкм]</name>
<sym>Scenic Area</sym>
<extensions><color>#0088ff00</color></extensions>
</wpt>
<wpt lat="55.636752" lon="37.594296">
<time>27.06.2019, 16:24:55</time>
<name>0378.мкрн. Чертаново Северное, д.4, к.401 [undefinedкм]</name>
<sym>Scenic Area</sym>
<extensions><color>#0088ff00</color></extensions>
</wpt>
<wpt lat="55.637955" lon="37.543148">
<time>27.06.2019, 16:24:55</time>
<name>0383.ул. Миклухо-Маклая, д.44 (вход в Битцевский парк) [undefinedкм]</name>
<sym>Scenic Area</sym>
<extensions><color>#0088ff00</color></extensions>
</wpt>
<wpt lat="55.640518" lon="37.60489">
<time>27.06.2019, 16:24:55</time>
<name>0377.ст. м. Чертановская (выход №5) [undefinedкм]</name>
<sym>Scenic Area</sym>
<extensions><color>#0088ff00</color></extensions>
</wpt>
<wpt lat="55.769853" lon="37.581862">
<time>27.06.2019, 16:24:55</time>
<name>0234.ул. Большая Грузинская, д.39 [undefinedкм]</name>
<sym>Scenic Area</sym>
<extensions><color>#0088ff00</color></extensions>
</wpt>
<wpt lat="55.705293" lon="37.514291">
<time>27.06.2019, 16:24:55</time>
<name>0355.Ломоносовский пр-т, д.29, к.3 (ст. м. Ломоносовский пр-т, выход №2) [undefinedкм]</name>
<sym>Scenic Area</sym>
<extensions><color>#0088ff00</color></extensions>
</wpt>
<wpt lat="55.701597" lon="37.530847">
<time>27.06.2019, 16:24:55</time>
<name>0352.ул. Академика Хохлова (у входа в ГЗ МГУ) [undefinedкм]</name>
<sym>Scenic Area</sym>
<extensions><color>#0088ff00</color></extensions>
</wpt>
<wpt lat="55.7575043" lon="37.5457088">
<time>27.06.2019, 16:24:55</time>
<name>0228.Шмитовский пр., д.16, стр.2 [undefinedкм]</name>
<sym>Scenic Area</sym>
<extensions><color>#0088ff00</color></extensions>
</wpt>
<wpt lat="55.79306" lon="37.56551">
<time>27.06.2019, 16:24:55</time>
<name>0532.ул. Верхняя Масловка, д.10, стр.4 [undefinedкм]</name>
<sym>Scenic Area</sym>
<extensions><color>#0088ff00</color></extensions>
</wpt>
<wpt lat="55.764259" lon="37.5525262">
<time>27.06.2019, 16:24:55</time>
<name>0229.Звенигородское ш., д.7 [undefinedкм]</name>
<sym>Scenic Area</sym>
<extensions><color>#0088ff00</color></extensions>
</wpt>
<wpt lat="55.7770608" lon="37.5830376">
<time>27.06.2019, 16:24:55</time>
<name>0231.пл. Тверская Застава, д.7 [undefinedкм]</name>
<sym>Scenic Area</sym>
<extensions><color>#0088ff00</color></extensions>
</wpt>
<wpt lat="55.6420084" lon="37.5256107">
<time>27.06.2019, 16:24:55</time>
<name>0334.ул. Профсоюзная, д.104 (ст. м. Беляево, южный вестибюль) [undefinedкм]</name>
<sym>Scenic Area</sym>
<extensions><color>#0088ff00</color></extensions>
</wpt>
<wpt lat="55.717707" lon="37.6763299">
<time>27.06.2019, 16:24:55</time>
<name>0600.ул. Шарикоподшипниковская, д.24 (ст. м. Дубровка, выход №3) [undefinedкм]</name>
<sym>Scenic Area</sym>
<extensions><color>#0088ff00</color></extensions>
</wpt>
<wpt lat="55.7838658" lon="37.5963795">
<time>27.06.2019, 16:24:55</time>
<name>0408.ул. Лесная, д.63/43, стр.2 [undefinedкм]</name>
<sym>Scenic Area</sym>
<extensions><color>#0088ff00</color></extensions>
</wpt>
<wpt lat="55.7120063" lon="37.621316">
<time>27.06.2019, 16:24:55</time>
<name>0271.ул. Мытная, д.74 [undefinedкм]</name>
<sym>Scenic Area</sym>
<extensions><color>#0088ff00</color></extensions>
</wpt>
<wpt lat="55.8334316" lon="37.6374584">
<time>27.06.2019, 16:24:55</time>
<name>0450.ул. Сергея Эйзенштейна, д.8 [undefinedкм]</name>
<sym>Scenic Area</sym>
<extensions><color>#0088ff00</color></extensions>
</wpt>
<wpt lat="55.70393" lon="37.49521">
<time>27.06.2019, 16:24:55</time>
<name>0276.ул. Мосфильмовская, д.55 [undefinedкм]</name>
<sym>Scenic Area</sym>
<extensions><color>#0088ff00</color></extensions>
</wpt>
<wpt lat="55.7763965" lon="37.6501702">
<time>27.06.2019, 16:24:55</time>
<name>0463.ул. Каланчёвская, д.10, стр.3 [undefinedкм]</name>
<sym>Scenic Area</sym>
<extensions><color>#0088ff00</color></extensions>
</wpt>
<wpt lat="55.8218703" lon="37.6042362">
<time>27.06.2019, 16:24:55</time>
<name>0473.ул. Академика Королёва, д.12А [undefinedкм]</name>
<sym>Scenic Area</sym>
<extensions><color>#0088ff00</color></extensions>
</wpt>
<wpt lat="55.823283" lon="37.6341961">
<time>27.06.2019, 16:24:55</time>
<name>0474.1-я Останкинская ул, д.55 [undefinedкм]</name>
<sym>Scenic Area</sym>
<extensions><color>#0088ff00</color></extensions>
</wpt>
<wpt lat="55.7301414" lon="37.6606868">
<time>27.06.2019, 16:24:55</time>
<name>0602.ул. Симоновский Вал, д.2 [undefinedкм]</name>
<sym>Scenic Area</sym>
<extensions><color>#0088ff00</color></extensions>
</wpt>
<wpt lat="55.7299466" lon="37.637229">
<time>27.06.2019, 16:24:55</time>
<name>0149.Павелецкая пл., д.1А [undefinedкм]</name>
<sym>Scenic Area</sym>
<extensions><color>#0088ff00</color></extensions>
</wpt>
<wpt lat="55.7266781" lon="37.6250142">
<time>27.06.2019, 16:24:55</time>
<name>0260.ул. Б.Серпуховская, д. 22/21, стр.3 (ст. м. Серпуховская) [undefinedкм]</name>
<sym>Scenic Area</sym>
<extensions><color>#0088ff00</color></extensions>
</wpt>
<wpt lat="55.752609" lon="37.599867">
<time>27.06.2019, 16:24:55</time>
<name>0050.ул. Новый Арбат, д.1 [undefinedкм]</name>
<sym>Scenic Area</sym>
<extensions><color>#0088ff00</color></extensions>
</wpt>
<wpt lat="55.766613" lon="37.631618">
<time>27.06.2019, 16:24:55</time>
<name>0034.пл. Сретенские ворота (напротив д.1) [undefinedкм]</name>
<sym>Scenic Area</sym>
<extensions><color>#0088ff00</color></extensions>
</wpt>
<wpt lat="55.764719" lon="37.639141">
<time>27.06.2019, 16:24:55</time>
<name>0037.Чистопрудный б-р (ст. м. Чистые пруды) [undefinedкм]</name>
<sym>Scenic Area</sym>
<extensions><color>#0088ff00</color></extensions>
</wpt>
<wpt lat="55.752153" lon="37.584725">
<time>27.06.2019, 16:24:55</time>
<name>0053.ул. Новый Арбат, д.21 [undefinedкм]</name>
<sym>Scenic Area</sym>
<extensions><color>#0088ff00</color></extensions>
</wpt>
<wpt lat="55.7204756" lon="37.6178259">
<time>27.06.2019, 16:24:55</time>
<name>0265.ул. Мытная, д.15 [undefinedкм]</name>
<sym>Scenic Area</sym>
<extensions><color>#0088ff00</color></extensions>
</wpt>
<wpt lat="55.7919252" lon="37.6871517">
<time>27.06.2019, 16:24:55</time>
<name>0490.ул. Стромынка, д.7, к.4 [undefinedкм]</name>
<sym>Scenic Area</sym>
<extensions><color>#0088ff00</color></extensions>
</wpt>
<wpt lat="55.72113" lon="37.62786">
<time>27.06.2019, 16:24:55</time>
<name>0268.ул. Павловская, д.7 [undefinedкм]</name>
<sym>Scenic Area</sym>
<extensions><color>#0088ff00</color></extensions>
</wpt>
<wpt lat="55.8218449" lon="37.589078">
<time>27.06.2019, 16:24:55</time>
<name>0538.ул. Милашенкова, д.1 (ст. м. Фонвизинская) [undefinedкм]</name>
<sym>Scenic Area</sym>
<extensions><color>#0088ff00</color></extensions>
</wpt>
<wpt lat="55.7396445" lon="37.6167027">
<time>27.06.2019, 16:24:55</time>
<name>0083.ул. Большая Якиманка (напротив д.18) [undefinedкм]</name>
<sym>Scenic Area</sym>
<extensions><color>#0088ff00</color></extensions>
</wpt>
<wpt lat="55.755462" lon="37.648355">
<time>27.06.2019, 16:24:55</time>
<name>0020.Покровский б-р (напротив д.12, стр.1) [undefinedкм]</name>
<sym>Scenic Area</sym>
<extensions><color>#0088ff00</color></extensions>
</wpt>
<wpt lat="55.765334" lon="37.636329">
<time>27.06.2019, 16:24:55</time>
<name>0015.Тургеневская пл. (ст. м. Тургеневская) [undefinedкм]</name>
<sym>Scenic Area</sym>
<extensions><color>#0088ff00</color></extensions>
</wpt>
<wpt lat="55.726421" lon="37.637515">
<time>27.06.2019, 16:24:55</time>
<name>0267.ул. Дубининская, д.25, стр.1 [undefinedкм]</name>
<sym>Scenic Area</sym>
<extensions><color>#0088ff00</color></extensions>
</wpt>
<wpt lat="55.748202" lon="37.6328433">
<time>27.06.2019, 16:24:55</time>
<name>0057.Раушская наб., д.14 [undefinedкм]</name>
<sym>Scenic Area</sym>
<extensions><color>#0088ff00</color></extensions>
</wpt>
<wpt lat="55.757163" lon="37.598667">
<time>27.06.2019, 16:24:55</time>
<name>0006.Никитский б-р (напротив д.23/14/9) [undefinedкм]</name>
<sym>Scenic Area</sym>
<extensions><color>#0088ff00</color></extensions>
</wpt>
<wpt lat="55.768066" lon="37.613347">
<time>27.06.2019, 16:24:55</time>
<name>0011.Страстной б-р (напротив д.16) [undefinedкм]</name>
<sym>Scenic Area</sym>
<extensions><color>#0088ff00</color></extensions>
</wpt>
<wpt lat="55.745244" lon="37.610828">
<time>27.06.2019, 16:24:55</time>
<name>0056.Берсеньевская наб., д.20/2 (Театр эстрады) [undefinedкм]</name>
<sym>Scenic Area</sym>
<extensions><color>#0088ff00</color></extensions>
</wpt>
<wpt lat="55.759865" lon="37.615807">
<time>27.06.2019, 16:24:55</time>
<name>0032.ул. Большая Дмитровка, д.5/6, стр.5 [undefinedкм]</name>
<sym>Scenic Area</sym>
<extensions><color>#0088ff00</color></extensions>
</wpt>
<wpt lat="55.740815" lon="37.625638">
<time>27.06.2019, 16:24:55</time>
<name>0075.Климентовский пер., д.23, стр.1 (ст. м. Третьяковская) [undefinedкм]</name>
<sym>Scenic Area</sym>
<extensions><color>#0088ff00</color></extensions>
</wpt>
<wpt lat="55.7414275" lon="37.5852946">
<time>27.06.2019, 16:24:55</time>
<name>0104.Смоленский б-р, д.22/14 [undefinedкм]</name>
<sym>Scenic Area</sym>
<extensions><color>#0088ff00</color></extensions>
</wpt>
<wpt lat="55.730695" lon="37.576903">
<time>27.06.2019, 16:24:55</time>
<name>0217.ул. Усачева, д.2, стр.1 [undefinedкм]</name>
<sym>Scenic Area</sym>
<extensions><color>#0088ff00</color></extensions>
</wpt>
<wpt lat="55.73218" lon="37.620018">
<time>27.06.2019, 16:24:55</time>
<name>0074.ул. Большая Полянка, д.50/1, стр.1 [undefinedкм]</name>
<sym>Scenic Area</sym>
<extensions><color>#0088ff00</color></extensions>
</wpt>
<wpt lat="55.7241978" lon="37.6223722">
<time>27.06.2019, 16:24:55</time>
<name>0263.ул. Люсиновская, д.12 [undefinedкм]</name>
<sym>Scenic Area</sym>
<extensions><color>#0088ff00</color></extensions>
</wpt>
<wpt lat="55.774431" lon="37.599413">
<time>27.06.2019, 16:24:55</time>
<name>0403.ул. Фадеева, д.4 [undefinedкм]</name>
<sym>Scenic Area</sym>
<extensions><color>#0088ff00</color></extensions>
</wpt>
<wpt lat="55.7615452" lon="37.5706888">
<time>27.06.2019, 16:24:55</time>
<name>0225.ул. Красная Пресня, д.21 [undefinedкм]</name>
<sym>Scenic Area</sym>
<extensions><color>#0088ff00</color></extensions>
</wpt>
<wpt lat="55.743048" lon="37.6202">
<time>27.06.2019, 16:24:55</time>
<name>0070.Лаврушинский пер. (напротив д.4, стр.1) [undefinedкм]</name>
<sym>Scenic Area</sym>
<extensions><color>#0088ff00</color></extensions>
</wpt>
<wpt lat="55.727595" lon="37.550435">
<time>27.06.2019, 16:24:55</time>
<name>0212.Хамовнический Вал, д.40, стр.1 [undefinedкм]</name>
<sym>Scenic Area</sym>
<extensions><color>#0088ff00</color></extensions>
</wpt>
<wpt lat="55.762217" lon="37.623177">
<time>27.06.2019, 16:24:55</time>
<name>0035.ул. Кузнецкий мост, д.13/9, стр.1 [undefinedкм]</name>
<sym>Scenic Area</sym>
<extensions><color>#0088ff00</color></extensions>
</wpt>
<wpt lat="55.7916073" lon="37.6669605">
<time>27.06.2019, 16:24:55</time>
<name>0479.ул. Сокольнический Вал (напротив д.28, стр.1) [undefinedкм]</name>
<sym>Scenic Area</sym>
<extensions><color>#0088ff00</color></extensions>
</wpt>
<wpt lat="55.78045" lon="37.57797">
<time>27.06.2019, 16:24:55</time>
<name>0424.Ленинградский пр-т, д.14, к.1 [undefinedкм]</name>
<sym>Scenic Area</sym>
<extensions><color>#0088ff00</color></extensions>
</wpt>
<wpt lat="55.707107" lon="37.578173">
<time>27.06.2019, 16:24:55</time>
<name>0310.Ленинский пр-т, д.34/1 [undefinedкм]</name>
<sym>Scenic Area</sym>
<extensions><color>#0088ff00</color></extensions>
</wpt>
<wpt lat="55.697476" lon="37.560729">
<time>27.06.2019, 16:24:55</time>
<name>0311.Ленинский пр-т, д.54 [undefinedкм]</name>
<sym>Scenic Area</sym>
<extensions><color>#0088ff00</color></extensions>
</wpt>
<wpt lat="55.747411" lon="37.592209">
<time>27.06.2019, 16:24:55</time>
<name>0054.пер. Сивцев Вражек, д.26, стр.1 [undefinedкм]</name>
<sym>Scenic Area</sym>
<extensions><color>#0088ff00</color></extensions>
</wpt>
<wpt lat="55.775457" lon="37.589687">
<time>27.06.2019, 16:24:55</time>
<name>0401.2-я Тверская-Ямская ул., д.54 [undefinedкм]</name>
<sym>Scenic Area</sym>
<extensions><color>#0088ff00</color></extensions>
</wpt>
<wpt lat="55.693257" lon="37.535463">
<time>27.06.2019, 16:24:55</time>
<name>0360.пл. Джавахарлала Неру, д.1 (ст. м. Университет, выход №2) [undefinedкм]</name>
<sym>Scenic Area</sym>
<extensions><color>#0088ff00</color></extensions>
</wpt>
<wpt lat="55.688153" lon="37.546468">
<time>27.06.2019, 16:24:55</time>
<name>0320.Ленинский пр-т, д.73/8 [undefinedкм]</name>
<sym>Scenic Area</sym>
<extensions><color>#0088ff00</color></extensions>
</wpt>
<wpt lat="55.691214" lon="37.550374">
<time>27.06.2019, 16:24:55</time>
<name>0313.Ленинский пр-т, д.66 [undefinedкм]</name>
<sym>Scenic Area</sym>
<extensions><color>#0088ff00</color></extensions>
</wpt>
<wpt lat="55.695176" lon="37.533756">
<time>27.06.2019, 16:24:55</time>
<name>0359.Ломоносовский пр-т (дублёр, напротив д.1, стр.64) [undefinedкм]</name>
<sym>Scenic Area</sym>
<extensions><color>#0088ff00</color></extensions>
</wpt>
<wpt lat="55.7604391" lon="37.5776708">
<time>27.06.2019, 16:24:55</time>
<name>0241.ст. м. Краснопресненская [undefinedкм]</name>
<sym>Scenic Area</sym>
<extensions><color>#0088ff00</color></extensions>
</wpt>
<wpt lat="55.724388" lon="37.605352">
<time>27.06.2019, 16:24:55</time>
<name>0315.Ленинский пр-т, д.9, стр.3 [undefinedкм]</name>
<sym>Scenic Area</sym>
<extensions><color>#0088ff00</color></extensions>
</wpt>
<wpt lat="55.7478923" lon="37.6386809">
<time>27.06.2019, 16:24:55</time>
<name>0024.Москворецкая наб., д.2А [undefinedкм]</name>
<sym>Scenic Area</sym>
<extensions><color>#0088ff00</color></extensions>
</wpt>
<wpt lat="55.7772628" lon="37.5870704">
<time>27.06.2019, 16:24:55</time>
<name>0402.ул. Лесная, д.6 [undefinedкм]</name>
<sym>Scenic Area</sym>
<extensions><color>#0088ff00</color></extensions>
</wpt>
<wpt lat="55.694853" lon="37.556333">
<time>27.06.2019, 16:24:55</time>
<name>0312.Ленинский пр-т, д.60/2 [undefinedкм]</name>
<sym>Scenic Area</sym>
<extensions><color>#0088ff00</color></extensions>
</wpt>
<wpt lat="55.79185" lon="37.5841">
<time>27.06.2019, 16:24:55</time>
<name>0428.ул. Нижняя Масловка, д.5, к.1 [undefinedкм]</name>
<sym>Scenic Area</sym>
<extensions><color>#0088ff00</color></extensions>
</wpt>
<wpt lat="55.768003" lon="37.621486">
<time>27.06.2019, 16:24:55</time>
<name>0012.Цветной б-р (напротив д.1, ст. м. Трубная) [undefinedкм]</name>
<sym>Scenic Area</sym>
<extensions><color>#0088ff00</color></extensions>
</wpt>
<wpt lat="55.7730885" lon="37.6212721">
<time>27.06.2019, 16:24:55</time>
<name>0122.Цветной б-р., д.34, стр.1 [undefinedкм]</name>
<sym>Scenic Area</sym>
<extensions><color>#0088ff00</color></extensions>
</wpt>
<wpt lat="55.7310887" lon="37.6358074">
<time>27.06.2019, 16:24:55</time>
<name>0148.ул. Новокузнецкая, д.43/16, стр.1 (ст. м. Павелецкая (кольцевая)) [undefinedкм]</name>
<sym>Scenic Area</sym>
<extensions><color>#0088ff00</color></extensions>
</wpt>
<wpt lat="55.7950047" lon="37.5455944">
<time>27.06.2019, 16:24:55</time>
<name>0521.Ленинградский пр-т, д.44 [undefinedкм]</name>
<sym>Scenic Area</sym>
<extensions><color>#0088ff00</color></extensions>
</wpt>
<wpt lat="55.7700911" lon="37.6116459">
<time>27.06.2019, 16:24:55</time>
<name>0047.ул. Каретный Ряд, д.3, стр.11 [undefinedкм]</name>
<sym>Scenic Area</sym>
<extensions><color>#0088ff00</color></extensions>
</wpt>
<wpt lat="55.7434283" lon="37.6417277">
<time>27.06.2019, 16:24:55</time>
<name>0071.Космодамианская наб., д.22, стр.1 [undefinedкм]</name>
<sym>Scenic Area</sym>
<extensions><color>#0088ff00</color></extensions>
</wpt>
<wpt lat="55.7420854" lon="37.6286203">
<time>27.06.2019, 16:24:55</time>
<name>0076.ул. Пятницкая, д.25, стр.1Д (рядом со ст. м. Новокузнецкая) [undefinedкм]</name>
<sym>Scenic Area</sym>
<extensions><color>#0088ff00</color></extensions>
</wpt>
<wpt lat="55.7353228" lon="37.6276564">
<time>27.06.2019, 16:24:55</time>
<name>0078.ул. Пятницкая, д.48, стр.1 [undefinedкм]</name>
<sym>Scenic Area</sym>
<extensions><color>#0088ff00</color></extensions>
</wpt>
<wpt lat="55.7277408" lon="37.6121883">
<time>27.06.2019, 16:24:55</time>
<name>0304.Калужская пл., д.1, к.3 [undefinedкм]</name>
<sym>Scenic Area</sym>
<extensions><color>#0088ff00</color></extensions>
</wpt>
<wpt lat="55.79759" lon="37.53978">
<time>27.06.2019, 16:24:55</time>
<name>0522.Ленинградский пр-т, д.54/1 [undefinedкм]</name>
<sym>Scenic Area</sym>
<extensions><color>#0088ff00</color></extensions>
</wpt>
<wpt lat="55.80273" lon="37.52036">
<time>27.06.2019, 16:24:55</time>
<name>0510.Чапаевский пер., д.2 [undefinedкм]</name>
<sym>Scenic Area</sym>
<extensions><color>#0088ff00</color></extensions>
</wpt>
<wpt lat="55.79538" lon="37.54216">
<time>27.06.2019, 16:24:55</time>
<name>0512.Ленинградский пр-т, д.39, стр.17 [undefinedкм]</name>
<sym>Scenic Area</sym>
<extensions><color>#0088ff00</color></extensions>
</wpt>
<wpt lat="55.7692458" lon="37.5655623">
<time>27.06.2019, 16:24:55</time>
<name>0237.ул. Пресненский Вал, д.24 [undefinedкм]</name>
<sym>Scenic Area</sym>
<extensions><color>#0088ff00</color></extensions>
</wpt>
<wpt lat="55.7032223" lon="37.5073382">
<time>27.06.2019, 16:24:55</time>
<name>0300.Мичуринский пр-т, д.12, к.1 [undefinedкм]</name>
<sym>Scenic Area</sym>
<extensions><color>#0088ff00</color></extensions>
</wpt>
<wpt lat="55.6897298" lon="37.530764">
<time>27.06.2019, 16:24:55</time>
<name>0302.пр-т Вернадского, д.11/19 [undefinedкм]</name>
<sym>Scenic Area</sym>
<extensions><color>#0088ff00</color></extensions>
</wpt>
<wpt lat="55.6765135" lon="37.5045648">
<time>27.06.2019, 16:24:55</time>
<name>0303.пр-т Вернадского, д.14 [undefinedкм]</name>
<sym>Scenic Area</sym>
<extensions><color>#0088ff00</color></extensions>
</wpt>
<wpt lat="55.6780815" lon="37.529704">
<time>27.06.2019, 16:24:55</time>
<name>0314.Ленинский пр-т, д.86 [undefinedкм]</name>
<sym>Scenic Area</sym>
<extensions><color>#0088ff00</color></extensions>
</wpt>
<wpt lat="55.7210015" lon="37.6002317">
<time>27.06.2019, 16:24:55</time>
<name>0316.Ленинский пр-т, д.15А [undefinedкм]</name>
<sym>Scenic Area</sym>
<extensions><color>#0088ff00</color></extensions>
</wpt>
<wpt lat="55.718604" lon="37.6080592">
<time>27.06.2019, 16:24:55</time>
<name>0340.ул. Шаболовка, д.32 (ст. м. Шаболовская) [undefinedкм]</name>
<sym>Scenic Area</sym>
<extensions><color>#0088ff00</color></extensions>
</wpt>
<wpt lat="55.7098155" lon="37.5943736">
<time>27.06.2019, 16:24:55</time>
<name>0341.ул. Орджоникидзе, д.11, стр.1/2 [undefinedкм]</name>
<sym>Scenic Area</sym>
<extensions><color>#0088ff00</color></extensions>
</wpt>
<wpt lat="55.78654" lon="37.56091">
<time>27.06.2019, 16:24:55</time>
<name>0513.Ленинградский пр-т, д.33, к.1 [undefinedкм]</name>
<sym>Scenic Area</sym>
<extensions><color>#0088ff00</color></extensions>
</wpt>
<wpt lat="55.71599" lon="37.5931">
<time>27.06.2019, 16:24:55</time>
<name>0346.Ленинский пр-т, д.27 [undefinedкм]</name>
<sym>Scenic Area</sym>
<extensions><color>#0088ff00</color></extensions>
</wpt>
<wpt lat="55.6914923" lon="37.5890604">
<time>27.06.2019, 16:24:55</time>
<name>0347.ул. Шверника, д.13, к.1 [undefinedкм]</name>
<sym>Scenic Area</sym>
<extensions><color>#0088ff00</color></extensions>
</wpt>
<wpt lat="55.7155927" lon="37.5159465">
<time>27.06.2019, 16:24:55</time>
<name>0348.ул. Мосфильмовская, д.17/25 [undefinedкм]</name>
<sym>Scenic Area</sym>
<extensions><color>#0088ff00</color></extensions>
</wpt>
<wpt lat="55.79435" lon="37.55366">
<time>27.06.2019, 16:24:55</time>
<name>0531.Дворцовая аллея (Пл. Космонавта Комарова) [undefinedкм]</name>
<sym>Scenic Area</sym>
<extensions><color>#0088ff00</color></extensions>
</wpt>
<wpt lat="55.7105268" lon="37.5072476">
<time>27.06.2019, 16:24:55</time>
<name>0354.Ломоносовский пр-т, д.43/40 [undefinedкм]</name>
<sym>Scenic Area</sym>
<extensions><color>#0088ff00</color></extensions>
</wpt>
<wpt lat="55.6846569" lon="37.5521608">
<time>27.06.2019, 16:24:55</time>
<name>0361.Ломоносовский пр-т, д.2/62, стр.8 [undefinedкм]</name>
<sym>Scenic Area</sym>
<extensions><color>#0088ff00</color></extensions>
</wpt>
<wpt lat="55.80034" lon="37.54917">
<time>27.06.2019, 16:24:55</time>
<name>0529.ул. Планетная, д.17 [undefinedкм]</name>
<sym>Scenic Area</sym>
<extensions><color>#0088ff00</color></extensions>
</wpt>
<wpt lat="55.7170746" lon="37.6637295">
<time>27.06.2019, 16:24:55</time>
<name>0613.ул. Велозаводская, д.2 [undefinedкм]</name>
<sym>Scenic Area</sym>
<extensions><color>#0088ff00</color></extensions>
</wpt>
<wpt lat="55.768248" lon="37.649046">
<time>27.06.2019, 16:24:55</time>
<name>0130.Хоромный туп, д.2/6 (ст. м. Красные Ворота) [undefinedкм]</name>
<sym>Scenic Area</sym>
<extensions><color>#0088ff00</color></extensions>
</wpt>
<wpt lat="55.6464942" lon="37.5975719">
<time>27.06.2019, 16:24:55</time>
<name>0291.ул. Азовская, напротив д.24 [undefinedкм]</name>
<sym>Scenic Area</sym>
<extensions><color>#0088ff00</color></extensions>
</wpt>
<wpt lat="55.66466" lon="37.5492">
<time>27.06.2019, 16:24:55</time>
<name>0288.ул. Профсоюзная, д.55 [undefinedкм]</name>
<sym>Scenic Area</sym>
<extensions><color>#0088ff00</color></extensions>
</wpt>
<wpt lat="55.73208" lon="37.59244">
<time>27.06.2019, 16:24:55</time>
<name>0253.Комсомольский пр-т, д.5/2 [undefinedкм]</name>
<sym>Scenic Area</sym>
<extensions><color>#0088ff00</color></extensions>
</wpt>
<wpt lat="55.7612" lon="37.55135">
<time>27.06.2019, 16:24:55</time>
<name>0255.ул. Костикова (2-я Звенигородская ул., д.13, стр.42) [undefinedкм]</name>
<sym>Scenic Area</sym>
<extensions><color>#0088ff00</color></extensions>
</wpt>
<wpt lat="55.766245" lon="37.590813">
<time>27.06.2019, 16:24:55</time>
<name>0114.ул. Большая Садовая, д.1 [undefinedкм]</name>
<sym>Scenic Area</sym>
<extensions><color>#0088ff00</color></extensions>
</wpt>
<wpt lat="55.756668" lon="37.583633">
<time>27.06.2019, 16:24:55</time>
<name>0108.Новинский б-р, д.27, стр.2 [undefinedкм]</name>
<sym>Scenic Area</sym>
<extensions><color>#0088ff00</color></extensions>
</wpt>
<wpt lat="55.7584711" lon="37.6142074">
<time>27.06.2019, 16:24:55</time>
<name>0042.Георгиевский пер., д.2 [undefinedкм]</name>
<sym>Scenic Area</sym>
<extensions><color>#0088ff00</color></extensions>
</wpt>
<wpt lat="55.776742" lon="37.506187">
<time>27.06.2019, 16:24:55</time>
<name>0515.МЦК Хорошёво [undefinedкм]</name>
<sym>Scenic Area</sym>
<extensions><color>#0088ff00</color></extensions>
</wpt>
<wpt lat="55.7371931" lon="37.5683739">
<time>27.06.2019, 16:24:55</time>
<name>0259.Саввинская наб., д.9 [undefinedкм]</name>
<sym>Scenic Area</sym>
<extensions><color>#0088ff00</color></extensions>
</wpt>
<wpt lat="55.768817" lon="37.684929">
<time>27.06.2019, 16:24:55</time>
<name>0652.2-я Бауманская ул., д.3 [undefinedкм]</name>
<sym>Scenic Area</sym>
<extensions><color>#0088ff00</color></extensions>
</wpt>
<wpt lat="55.7724933" lon="37.5916535">
<time>27.06.2019, 16:24:55</time>
<name>0086.1-я Тверская-Ямская ул., д.11 [undefinedкм]</name>
<sym>Scenic Area</sym>
<extensions><color>#0088ff00</color></extensions>
</wpt>
<wpt lat="55.725931" lon="37.670731">
<time>27.06.2019, 16:24:55</time>
<name>0606.1-я Дубровская ул., д.7/10 [undefinedкм]</name>
<sym>Scenic Area</sym>
<extensions><color>#0088ff00</color></extensions>
</wpt>
<wpt lat="55.8818528" lon="37.5660673">
<time>27.06.2019, 16:24:55</time>
<name>0690.ул. 800-летия Москвы, д.11, к.1 [undefinedкм]</name>
<sym>Scenic Area</sym>
<extensions><color>#0088ff00</color></extensions>
</wpt>
<wpt lat="55.6967984" lon="37.4960883">
<time>27.06.2019, 16:24:55</time>
<name>0296.Мичуринский пр-т, д.38 (ст. м. Раменки) [undefinedкм]</name>
<sym>Scenic Area</sym>
<extensions><color>#0088ff00</color></extensions>
</wpt>
<wpt lat="55.7995391" lon="37.674249">
<time>27.06.2019, 16:24:55</time>
<name>0499.5-й Лучевой просек, д.5А, стр.1 (парк Сокольники) [undefinedкм]</name>
<sym>Scenic Area</sym>
<extensions><color>#0088ff00</color></extensions>
</wpt>
<wpt lat="55.67144" lon="37.49611">
<time>27.06.2019, 16:24:55</time>
<name>0284.пр-т Вернадского, д.70А [undefinedкм]</name>
<sym>Scenic Area</sym>
<extensions><color>#0088ff00</color></extensions>
</wpt>
<wpt lat="55.78664" lon="37.53766">
<time>27.06.2019, 16:24:55</time>
<name>0504.Ходынский б-р, д.3 [undefinedкм]</name>
<sym>Scenic Area</sym>
<extensions><color>#0088ff00</color></extensions>
</wpt>
<wpt lat="55.7822" lon="37.53099">
<time>27.06.2019, 16:24:55</time>
<name>0505.ул. Гризодубовой, д.2 [undefinedкм]</name>
<sym>Scenic Area</sym>
<extensions><color>#0088ff00</color></extensions>
</wpt>
<wpt lat="55.79227" lon="37.51299">
<time>27.06.2019, 16:24:55</time>
<name>0502.3-я Песчаная ул., д.2 [undefinedкм]</name>
<sym>Scenic Area</sym>
<extensions><color>#0088ff00</color></extensions>
</wpt>
<wpt lat="55.81372" lon="37.66064">
<time>27.06.2019, 16:24:55</time>
<name>0448.Рижский пр-д, д.8 [undefinedкм]</name>
<sym>Scenic Area</sym>
<extensions><color>#0088ff00</color></extensions>
</wpt>
<wpt lat="55.81938" lon="37.64044">
<time>27.06.2019, 16:24:55</time>
<name>0476.пр-т Мира, д.142, стр.2 (ст. м. ВДНХ, выход к ул. Кибальчича) [undefinedкм]</name>
<sym>Scenic Area</sym>
<extensions><color>#0088ff00</color></extensions>
</wpt>
<wpt lat="55.77471" lon="37.6726">
<time>27.06.2019, 16:24:55</time>
<name>0456.ул. Нижняя Красносельская, д.40/12, к.11 [undefinedкм]</name>
<sym>Scenic Area</sym>
<extensions><color>#0088ff00</color></extensions>
</wpt>
<wpt lat="55.78834" lon="37.57815">
<time>27.06.2019, 16:24:55</time>
<name>0426.5-я ул. Ямского поля, д.24 [undefinedкм]</name>
<sym>Scenic Area</sym>
<extensions><color>#0088ff00</color></extensions>
</wpt>
<wpt lat="55.768127" lon="37.594487">
<time>27.06.2019, 16:24:55</time>
<name>0115.Триумфальная пл., д.2 (вход в сад Аквариум) [undefinedкм]</name>
<sym>Scenic Area</sym>
<extensions><color>#0088ff00</color></extensions>
</wpt>
<wpt lat="55.7708538" lon="37.5997612">
<time>27.06.2019, 16:24:55</time>
<name>0116.ул. Садовая-Тиумфальная, д.4/10 [undefinedкм]</name>
<sym>Scenic Area</sym>
<extensions><color>#0088ff00</color></extensions>
</wpt>
<wpt lat="55.717902" lon="37.513659">
<time>27.06.2019, 16:24:55</time>
<name>0392.ул. Улофа Пальме, д.1 [undefinedкм]</name>
<sym>Scenic Area</sym>
<extensions><color>#0088ff00</color></extensions>
</wpt>
<wpt lat="55.7290315" lon="37.6231799">
<time>27.06.2019, 16:24:55</time>
<name>0264.ул. Люсиновская, д.2 (ст. м. Добрынинская) [undefinedкм]</name>
<sym>Scenic Area</sym>
<extensions><color>#0088ff00</color></extensions>
</wpt>
<wpt lat="55.8142078" lon="37.6011372">
<time>27.06.2019, 16:24:55</time>
<name>0537.ул. Руставели, д.19 (ст. м.  Бутырская) [undefinedкм]</name>
<sym>Scenic Area</sym>
<extensions><color>#0088ff00</color></extensions>
</wpt>
<wpt lat="55.7657169" lon="37.6043076">
<time>27.06.2019, 16:24:55</time>
<name>0046.ул. Тверская, д.18 [undefinedкм]</name>
<sym>Scenic Area</sym>
<extensions><color>#0088ff00</color></extensions>
</wpt>
<wpt lat="55.794816" lon="37.714144">
<time>27.06.2019, 16:24:55</time>
<name>0539.Преображенская пл., д.12 (ст. м. Преображенская площадь) [undefinedкм]</name>
<sym>Scenic Area</sym>
<extensions><color>#0088ff00</color></extensions>
</wpt>
<wpt lat="55.735005" lon="37.65628">
<time>27.06.2019, 16:24:55</time>
<name>0610.ул. Б. Каменщики, д.8 [undefinedкм]</name>
<sym>Scenic Area</sym>
<extensions><color>#0088ff00</color></extensions>
</wpt>
<wpt lat="55.7655969" lon="37.6698876">
<time>27.06.2019, 16:24:55</time>
<name>0654.Токмаков пер., д.12/20 [undefinedкм]</name>
<sym>Scenic Area</sym>
<extensions><color>#0088ff00</color></extensions>
</wpt>
<wpt lat="55.775968" lon="37.692317">
<time>27.06.2019, 16:24:55</time>
<name>0655.ул. Большая Почтовая, д.7, стр.1 [undefinedкм]</name>
<sym>Scenic Area</sym>
<extensions><color>#0088ff00</color></extensions>
</wpt>
<wpt lat="55.6220611" lon="37.7434632">
<time>27.06.2019, 16:24:55</time>
<name>0682.ст. м. Шипиловская (выход №5) [undefinedкм]</name>
<sym>Scenic Area</sym>
<extensions><color>#0088ff00</color></extensions>
</wpt>
<wpt lat="55.69684" lon="37.62041">
<time>27.06.2019, 16:24:55</time>
<name>0278.Варшавское ш., д.12 [undefinedкм]</name>
<sym>Scenic Area</sym>
<extensions><color>#0088ff00</color></extensions>
</wpt>
<wpt lat="55.68397" lon="37.62275">
<time>27.06.2019, 16:24:55</time>
<name>0280.Варшавское ш., д.26 (ст. м. Нагатинская) [undefinedкм]</name>
<sym>Scenic Area</sym>
<extensions><color>#0088ff00</color></extensions>
</wpt>
<wpt lat="55.7107" lon="37.60075">
<time>27.06.2019, 16:24:55</time>
<name>0273.ул. Орджоникидзе (напротив д.5) [undefinedкм]</name>
<sym>Scenic Area</sym>
<extensions><color>#0088ff00</color></extensions>
</wpt>
<wpt lat="55.798216" lon="37.602618">
<time>27.06.2019, 16:24:55</time>
<name>0533.ул. Полковая, д.1, стр.2 [undefinedкм]</name>
<sym>Scenic Area</sym>
<extensions><color>#0088ff00</color></extensions>
</wpt>
<wpt lat="55.78894" lon="37.55936">
<time>27.06.2019, 16:24:55</time>
<name>0520.ст. м. Динамо (южный выход) [undefinedкм]</name>
<sym>Scenic Area</sym>
<extensions><color>#0088ff00</color></extensions>
</wpt>
<wpt lat="55.80132" lon="37.53124">
<time>27.06.2019, 16:24:55</time>
<name>0523.Ленинградский пр-т, д.62А (ст. м. Аэропорт, выход в город к ул. Черняховского) [undefinedкм]</name>
<sym>Scenic Area</sym>
<extensions><color>#0088ff00</color></extensions>
</wpt>
<wpt lat="55.6946806" lon="37.4960798">
<time>27.06.2019, 16:24:55</time>
<name>0279.Мичуринский пр-т, д.31, к.4 [undefinedкм]</name>
<sym>Scenic Area</sym>
<extensions><color>#0088ff00</color></extensions>
</wpt>
<wpt lat="55.68298" lon="37.49097">
<time>27.06.2019, 16:24:55</time>
<name>0281.ул. Удальцова, д.40А [undefinedкм]</name>
<sym>Scenic Area</sym>
<extensions><color>#0088ff00</color></extensions>
</wpt>
<wpt lat="55.68228" lon="37.51531">
<time>27.06.2019, 16:24:55</time>
<name>0282.пр-т Вернадского, д.12 [undefinedкм]</name>
<sym>Scenic Area</sym>
<extensions><color>#0088ff00</color></extensions>
</wpt>
<wpt lat="55.66072" lon="37.48128">
<time>27.06.2019, 16:24:55</time>
<name>0287.пр-т Вернадского, д.86Д [undefinedкм]</name>
<sym>Scenic Area</sym>
<extensions><color>#0088ff00</color></extensions>
</wpt>
<wpt lat="55.78611" lon="37.5198">
<time>27.06.2019, 16:24:55</time>
<name>0506.пр-д Берёзовой Рощи, д.2 [undefinedкм]</name>
<sym>Scenic Area</sym>
<extensions><color>#0088ff00</color></extensions>
</wpt>
<wpt lat="55.82637" lon="37.64784">
<time>27.06.2019, 16:24:55</time>
<name>0536.пр-т Мира, д.182 [undefinedкм]</name>
<sym>Scenic Area</sym>
<extensions><color>#0088ff00</color></extensions>
</wpt>
<wpt lat="55.80138" lon="37.71148">
<time>27.06.2019, 16:24:55</time>
<name>0494.ул. Краснобогатырская, д.89 [undefinedкм]</name>
<sym>Scenic Area</sym>
<extensions><color>#0088ff00</color></extensions>
</wpt>
<wpt lat="55.82667" lon="37.64668">
<time>27.06.2019, 16:24:55</time>
<name>0535.пр-т Мира, д.123 [undefinedкм]</name>
<sym>Scenic Area</sym>
<extensions><color>#0088ff00</color></extensions>
</wpt>
<wpt lat="55.66923" lon="37.5539">
<time>27.06.2019, 16:24:55</time>
<name>0292.ул. Профсоюзная, д.43 (ст. м. Новые Черёмушки, выход №2) [undefinedкм]</name>
<sym>Scenic Area</sym>
<extensions><color>#0088ff00</color></extensions>
</wpt>
<wpt lat="55.7569598" lon="37.6580268">
<time>27.06.2019, 16:24:55</time>
<name>0141.ул. Земляной Вал, д.33 [undefinedкм]</name>
<sym>Scenic Area</sym>
<extensions><color>#0088ff00</color></extensions>
</wpt>
<wpt lat="55.7390591" lon="37.6531291">
<time>27.06.2019, 16:24:55</time>
<name>0601.ул. Б. Каменщики, д.2 (ст. м. Таганская (радиальная)) [undefinedкм]</name>
<sym>Scenic Area</sym>
<extensions><color>#0088ff00</color></extensions>
</wpt>
<wpt lat="55.7323179" lon="37.665312">
<time>27.06.2019, 16:24:55</time>
<name>0604.ул. Воронцовская, д.50 (ст. м. Крестьянская Застава) [undefinedкм]</name>
<sym>Scenic Area</sym>
<extensions><color>#0088ff00</color></extensions>
</wpt>
<wpt lat="55.7712466" lon="37.5943833">
<time>27.06.2019, 16:24:55</time>
<name>0048.1-я Тверская-Ямская ул., д.4 (ст. м. Маяковская, выход на 1-ю Тверскую-Ямскую ул.) [undefinedкм]</name>
<sym>Scenic Area</sym>
<extensions><color>#0088ff00</color></extensions>
</wpt>
<wpt lat="55.7434021" lon="37.5977164">
<time>27.06.2019, 16:24:55</time>
<name>0062.ул. Пречистенка, д.12/2, стр.1 [undefinedкм]</name>
<sym>Scenic Area</sym>
<extensions><color>#0088ff00</color></extensions>
</wpt>
<wpt lat="55.7394363" lon="37.6699924">
<time>27.06.2019, 16:24:55</time>
<name>0615.ул. Таганская, д.31/22 [undefinedкм]</name>
<sym>Scenic Area</sym>
<extensions><color>#0088ff00</color></extensions>
</wpt>
<wpt lat="55.6137016" lon="37.7456143">
<time>27.06.2019, 16:24:55</time>
<name>0680.ст. м. Зябликово (выход №9) [undefinedкм]</name>
<sym>Scenic Area</sym>
<extensions><color>#0088ff00</color></extensions>
</wpt>
<wpt lat="55.7246532" lon="37.6878922">
<time>27.06.2019, 16:24:55</time>
<name>0619.Волгоградский пр-т, д.32, стр.21 (ст. м. Волгоградский пр-т, выход №2) [undefinedкм]</name>
<sym>Scenic Area</sym>
<extensions><color>#0088ff00</color></extensions>
</wpt>
<wpt lat="55.7904" lon="37.63324">
<time>27.06.2019, 16:24:55</time>
<name>0429.ул. Трифоновская, д.61, к.1 [undefinedкм]</name>
<sym>Scenic Area</sym>
<extensions><color>#0088ff00</color></extensions>
</wpt>
<wpt lat="55.77946" lon="37.60095">
<time>27.06.2019, 16:24:55</time>
<name>0409.ул. Новослободская, д.2 (ст. м. Новослободская) [undefinedкм]</name>
<sym>Scenic Area</sym>
<extensions><color>#0088ff00</color></extensions>
</wpt>
<wpt lat="55.75285" lon="37.58883">
<time>27.06.2019, 16:24:55</time>
<name>0051.ул. Новый Арбат, д.22 [undefinedкм]</name>
<sym>Scenic Area</sym>
<extensions><color>#0088ff00</color></extensions>
</wpt>
<wpt lat="55.73511" lon="37.51768">
<time>27.06.2019, 16:24:55</time>
<name>0257.ул. Генерала Ермолова, д.4 [undefinedкм]</name>
<sym>Scenic Area</sym>
<extensions><color>#0088ff00</color></extensions>
</wpt>
<wpt lat="55.80443" lon="37.51517">
<time>27.06.2019, 16:24:55</time>
<name>0509.Ленинградский пр-т, д.73 (ст. м. Сокол, выход №1) [undefinedкм]</name>
<sym>Scenic Area</sym>
<extensions><color>#0088ff00</color></extensions>
</wpt>
<wpt lat="55.8037654" lon="37.5212331">
<time>27.06.2019, 16:24:55</time>
<name>0524.Ленинградский пр-т, д.68 [undefinedкм]</name>
<sym>Scenic Area</sym>
<extensions><color>#0088ff00</color></extensions>
</wpt>
<wpt lat="55.78389" lon="37.51401">
<time>27.06.2019, 16:24:55</time>
<name>0501.ул. Куусинена, д.13 [undefinedкм]</name>
<sym>Scenic Area</sym>
<extensions><color>#0088ff00</color></extensions>
</wpt>
<wpt lat="55.754015" lon="37.634688">
<time>27.06.2019, 16:24:55</time>
<name>0041.Славянская площадь (напротив д.2) [undefinedкм]</name>
<sym>Scenic Area</sym>
<extensions><color>#0088ff00</color></extensions>
</wpt>
<wpt lat="55.7530475" lon="37.6014341">
<time>27.06.2019, 16:24:55</time>
<name>0052.Никитский б-р (напротив д.8А/3,  стр.1) [undefinedкм]</name>
<sym>Scenic Area</sym>
<extensions><color>#0088ff00</color></extensions>
</wpt>
<wpt lat="55.7597006" lon="37.5848176">
<time>27.06.2019, 16:24:55</time>
<name>0111.ул. Садовая-Кудринская, д.1-3а [undefinedкм]</name>
<sym>Scenic Area</sym>
<extensions><color>#0088ff00</color></extensions>
</wpt>
<wpt lat="55.76547" lon="37.660107">
<time>27.06.2019, 16:24:55</time>
<name>0650.ул. Старая Басманная, д.15, стр.2 (Сад им. Баумана) [undefinedкм]</name>
<sym>Scenic Area</sym>
<extensions><color>#0088ff00</color></extensions>
</wpt>
<wpt lat="55.8647675" lon="37.5713646">
<time>27.06.2019, 16:24:55</time>
<name>0687.ул. Дубнинская, д.12, к.3 [undefinedкм]</name>
<sym>Scenic Area</sym>
<extensions><color>#0088ff00</color></extensions>
</wpt>
<wpt lat="55.626515" lon="37.7426075">
<time>27.06.2019, 16:24:55</time>
<name>0683.ул. Мусы Джалиля, вл.13а [undefinedкм]</name>
<sym>Scenic Area</sym>
<extensions><color>#0088ff00</color></extensions>
</wpt>
<wpt lat="55.66388" lon="37.61995">
<time>27.06.2019, 16:24:55</time>
<name>0290.Варшавское ш., д.58, стр.3 [undefinedкм]</name>
<sym>Scenic Area</sym>
<extensions><color>#0088ff00</color></extensions>
</wpt>
<wpt lat="55.67341" lon="37.51384">
<time>27.06.2019, 16:24:55</time>
<name>0285.ул. Удальцова, д.6 [undefinedкм]</name>
<sym>Scenic Area</sym>
<extensions><color>#0088ff00</color></extensions>
</wpt>
<wpt lat="55.787" lon="37.64036">
<time>27.06.2019, 16:24:55</time>
<name>0436.ул. Большая Переяславская, д.15 [undefinedкм]</name>
<sym>Scenic Area</sym>
<extensions><color>#0088ff00</color></extensions>
</wpt>
<wpt lat="55.81359" lon="37.63841">
<time>27.06.2019, 16:24:55</time>
<name>0447.пр-т Мира, д.122 [undefinedкм]</name>
<sym>Scenic Area</sym>
<extensions><color>#0088ff00</color></extensions>
</wpt>
<wpt lat="55.736359" lon="37.595854">
<time>27.06.2019, 16:24:55</time>
<name>0152.Турчанинов пер., д.3, стр. 1 (ст. м. Парк Культуры) [undefinedкм]</name>
<sym>Scenic Area</sym>
<extensions><color>#0088ff00</color></extensions>
</wpt>
<wpt lat="55.748114" lon="37.582947">
<time>27.06.2019, 16:24:55</time>
<name>0106.Смоленская пл., д.6, стр.1 (рядом со ст. м. Смоленская) [undefinedкм]</name>
<sym>Scenic Area</sym>
<extensions><color>#0088ff00</color></extensions>
</wpt>
<wpt lat="55.7301022" lon="37.6102521">
<time>27.06.2019, 16:24:55</time>
<name>0158.ул. Крымский Вал, д.3 (ст. м. Октябрьская) [undefinedкм]</name>
<sym>Scenic Area</sym>
<extensions><color>#0088ff00</color></extensions>
</wpt>
<wpt lat="55.7403289" lon="37.5728133">
<time>27.06.2019, 16:24:55</time>
<name>0247.7-й Ростовский пер., д.11 [undefinedкм]</name>
<sym>Scenic Area</sym>
<extensions><color>#0088ff00</color></extensions>
</wpt>
<wpt lat="55.7390438" lon="37.610879">
<time>27.06.2019, 16:24:55</time>
<name>0069.Якиманская наб., д.2 [undefinedкм]</name>
<sym>Scenic Area</sym>
<extensions><color>#0088ff00</color></extensions>
</wpt>
<wpt lat="55.7110537" lon="37.6663363">
<time>27.06.2019, 16:24:55</time>
<name>0608.ул. Велозаводская, д.11/1 [undefinedкм]</name>
<sym>Scenic Area</sym>
<extensions><color>#0088ff00</color></extensions>
</wpt>
<wpt lat="55.8712028" lon="37.5548583">
<time>27.06.2019, 16:24:55</time>
<name>0686.Бескудниковский б-р, д.29, к.1 [undefinedкм]</name>
<sym>Scenic Area</sym>
<extensions><color>#0088ff00</color></extensions>
</wpt>
<wpt lat="55.622981" lon="37.7022624">
<time>27.06.2019, 16:24:55</time>
<name>0684.ул. Маршала Захарова, д.8, к.1 [undefinedкм]</name>
<sym>Scenic Area</sym>
<extensions><color>#0088ff00</color></extensions>
</wpt>
<wpt lat="55.78241" lon="37.60152">
<time>27.06.2019, 16:24:55</time>
<name>0418.ул. Сущёвская, д.21, стр.10 [undefinedкм]</name>
<sym>Scenic Area</sym>
<extensions><color>#0088ff00</color></extensions>
</wpt>
<wpt lat="55.66734" lon="37.59469">
<time>27.06.2019, 16:24:55</time>
<name>0289.Нахимовский пр-т, д.10 [undefinedкм]</name>
<sym>Scenic Area</sym>
<extensions><color>#0088ff00</color></extensions>
</wpt>
<wpt lat="55.6734" lon="37.54503">
<time>27.06.2019, 16:24:55</time>
<name>0286.ул. Гарибальди, д.20/29, к.2 [undefinedкм]</name>
<sym>Scenic Area</sym>
<extensions><color>#0088ff00</color></extensions>
</wpt>
<wpt lat="55.78876254" lon="37.5824392">
<time>27.06.2019, 16:24:55</time>
<name>0427.ул. Правды, д.24, стр.4 [undefinedкм]</name>
<sym>Scenic Area</sym>
<extensions><color>#0088ff00</color></extensions>
</wpt>
<wpt lat="55.818213" lon="37.603052">
<time>27.06.2019, 16:24:55</time>
<name>0534.ул. Дубовая Роща, д.21 (платформа Останкино) [undefinedкм]</name>
<sym>Scenic Area</sym>
<extensions><color>#0088ff00</color></extensions>
</wpt>
<wpt lat="55.77983" lon="37.69265">
<time>27.06.2019, 16:24:55</time>
<name>0497.ул. Бакунинская, д.73, стр.1 [undefinedкм]</name>
<sym>Scenic Area</sym>
<extensions><color>#0088ff00</color></extensions>
</wpt>
<wpt lat="55.82139" lon="37.66289">
<time>27.06.2019, 16:24:55</time>
<name>0486.ул. Космонавтов, д.19 [undefinedкм]</name>
<sym>Scenic Area</sym>
<extensions><color>#0088ff00</color></extensions>
</wpt>
<wpt lat="55.80549" lon="37.7067">
<time>27.06.2019, 16:24:55</time>
<name>0493.ул. Краснобогатырская, д.62 [undefinedкм]</name>
<sym>Scenic Area</sym>
<extensions><color>#0088ff00</color></extensions>
</wpt>
<wpt lat="55.7918581" lon="37.5272596">
<time>27.06.2019, 16:24:55</time>
<name>0503.ул. Авиаконструктора Микояна, д.10 [undefinedкм]</name>
<sym>Scenic Area</sym>
<extensions><color>#0088ff00</color></extensions>
</wpt>
<wpt lat="55.727227" lon="37.567605">
<time>27.06.2019, 16:24:55</time>
<name>0220.ул. Усачева, д. 26 (Усачёвский рынок) [undefinedкм]</name>
<sym>Scenic Area</sym>
<extensions><color>#0088ff00</color></extensions>
</wpt>
<wpt lat="55.75849" lon="37.584875">
<time>27.06.2019, 16:24:55</time>
<name>0110.Кудринская пл., д.46/54, стр.1 [undefinedкм]</name>
<sym>Scenic Area</sym>
<extensions><color>#0088ff00</color></extensions>
</wpt>
<wpt lat="55.782284" lon="37.7082403">
<time>27.06.2019, 16:24:55</time>
<name>0543.ул. Б. Семёновская, д.27, к.2 [undefinedкм]</name>
<sym>Scenic Area</sym>
<extensions><color>#0088ff00</color></extensions>
</wpt>
<wpt lat="55.8736631" lon="37.5504943">
<time>27.06.2019, 16:24:55</time>
<name>0688.Бескудниковский б-р, д.35, стр.1 [undefinedкм]</name>
<sym>Scenic Area</sym>
<extensions><color>#0088ff00</color></extensions>
</wpt>
<wpt lat="55.71573" lon="37.60758">
<time>27.06.2019, 16:24:55</time>
<name>0270.ул. Шаболовка, д.43, стр.5 [undefinedкм]</name>
<sym>Scenic Area</sym>
<extensions><color>#0088ff00</color></extensions>
</wpt>
<wpt lat="55.7991006" lon="37.5145568">
<time>27.06.2019, 16:24:55</time>
<name>0507.ул. Новопесчаная, д.10, стр.1 [undefinedкм]</name>
<sym>Scenic Area</sym>
<extensions><color>#0088ff00</color></extensions>
</wpt>
<wpt lat="55.8112525" lon="37.5252605">
<time>27.06.2019, 16:24:55</time>
<name>0525.ул. Часовая, д.24, стр.3 [undefinedкм]</name>
<sym>Scenic Area</sym>
<extensions><color>#0088ff00</color></extensions>
</wpt>
<wpt lat="55.78427" lon="37.58714">
<time>27.06.2019, 16:24:55</time>
<name>0419.ул. Бутырский Вал, д.32 [undefinedкм]</name>
<sym>Scenic Area</sym>
<extensions><color>#0088ff00</color></extensions>
</wpt>
<wpt lat="55.81665" lon="37.6468">
<time>27.06.2019, 16:24:55</time>
<name>0449.ул. Кибальчича, д.9 [undefinedкм]</name>
<sym>Scenic Area</sym>
<extensions><color>#0088ff00</color></extensions>
</wpt>
<wpt lat="55.82257" lon="37.64387">
<time>27.06.2019, 16:24:55</time>
<name>0498.пр-т Мира, д.150 [undefinedкм]</name>
<sym>Scenic Area</sym>
<extensions><color>#0088ff00</color></extensions>
</wpt>
<wpt lat="55.67204" lon="37.49052">
<time>27.06.2019, 16:24:55</time>
<name>0283.пр-т Вернадского, д.76А [undefinedкм]</name>
<sym>Scenic Area</sym>
<extensions><color>#0088ff00</color></extensions>
</wpt>
<wpt lat="55.765695" lon="37.5907248">
<time>27.06.2019, 16:24:55</time>
<name>0113.ул. Садовая-Кудринская, д.32, стр.2 [undefinedкм]</name>
<sym>Scenic Area</sym>
<extensions><color>#0088ff00</color></extensions>
</wpt>
<wpt lat="55.77198" lon="37.60339">
<time>27.06.2019, 16:24:55</time>
<name>0117.ул. Садовая-Триумфальная, д.22/31 [undefinedкм]</name>
<sym>Scenic Area</sym>
<extensions><color>#0088ff00</color></extensions>
</wpt>
<wpt lat="55.7391738" lon="37.5325169">
<time>27.06.2019, 16:24:55</time>
<name>0256.Кутузовский пр-т, д.37 (ст.м. Кутузовская) [undefinedкм]</name>
<sym>Scenic Area</sym>
<extensions><color>#0088ff00</color></extensions>
</wpt>
<wpt lat="55.738605" lon="37.605304">
<time>27.06.2019, 16:24:55</time>
<name>0063.Пречистенская наб., д.15, стр.2 [undefinedкм]</name>
<sym>Scenic Area</sym>
<extensions><color>#0088ff00</color></extensions>
</wpt>
<wpt lat="55.7829536" lon="37.7188593">
<time>27.06.2019, 16:24:55</time>
<name>0540.ст. м. Семёновская [undefinedкм]</name>
<sym>Scenic Area</sym>
<extensions><color>#0088ff00</color></extensions>
</wpt>
<wpt lat="55.769393" lon="37.596613">
<time>27.06.2019, 16:24:55</time>
<name>0045.ул. Тверская, д.31/4, стр.2 (ст.м. Маяковская, выход на Тверскую ул.) [undefinedкм]</name>
<sym>Scenic Area</sym>
<extensions><color>#0088ff00</color></extensions>
</wpt>
<wpt lat="55.764887" lon="37.546261">
<time>27.06.2019, 16:24:55</time>
<name>0227.Звенигородское ш., д.15/11 [undefinedкм]</name>
<sym>Scenic Area</sym>
<extensions><color>#0088ff00</color></extensions>
</wpt>
<wpt lat="55.7311383" lon="37.664271">
<time>27.06.2019, 16:24:55</time>
<name>0605.3-й Крутицкий пер., д.13, стр.2 (ст. м. Пролетарская) [undefinedкм]</name>
<sym>Scenic Area</sym>
<extensions><color>#0088ff00</color></extensions>
</wpt>
<wpt lat="55.7232251" lon="37.6639974">
<time>27.06.2019, 16:24:55</time>
<name>0607.ул. Симоновский Вал, д.13, к.2 [undefinedкм]</name>
<sym>Scenic Area</sym>
<extensions><color>#0088ff00</color></extensions>
</wpt>
<wpt lat="55.6141672" lon="37.6946714">
<time>27.06.2019, 16:24:55</time>
<name>0685.ст. м. Орехово (выход №3) [undefinedкм]</name>
<sym>Scenic Area</sym>
<extensions><color>#0088ff00</color></extensions>
</wpt>
<wpt lat="55.75851" lon="37.55293">
<time>27.06.2019, 16:24:55</time>
<name>0254.Шмитовский пр., д.9/5 [undefinedкм]</name>
<sym>Scenic Area</sym>
<extensions><color>#0088ff00</color></extensions>
</wpt>
<wpt lat="55.80055" lon="37.53027">
<time>27.06.2019, 16:24:55</time>
<name>0511.Ленинградский пр-т, д.49/2 (ст. м. Аэропорт) [undefinedкм]</name>
<sym>Scenic Area</sym>
<extensions><color>#0088ff00</color></extensions>
</wpt>
<wpt lat="55.7907" lon="37.71599">
<time>27.06.2019, 16:24:55</time>
<name>0495.ул. Преображенский Вал, д.24, к.3 [undefinedкм]</name>
<sym>Scenic Area</sym>
<extensions><color>#0088ff00</color></extensions>
</wpt>
<wpt lat="55.728329" lon="37.610612">
<time>27.06.2019, 16:24:55</time>
<name>0154.Ленинский пр-т, д. 4 (у главного входа в МИСИС) [undefinedкм]</name>
<sym>Scenic Area</sym>
<extensions><color>#0088ff00</color></extensions>
</wpt>
<wpt lat="55.7590698" lon="37.5659411">
<time>27.06.2019, 16:24:55</time>
<name>0239.Нововаганьковский пер., д.9 [undefinedкм]</name>
<sym>Scenic Area</sym>
<extensions><color>#0088ff00</color></extensions>
</wpt>
<wpt lat="55.64333" lon="37.72517">
<time>27.06.2019, 16:24:55</time>
<name>0661.Батайский пр-д (напротив д.33) [undefinedкм]</name>
<sym>Scenic Area</sym>
<extensions><color>#0088ff00</color></extensions>
</wpt>
<wpt lat="55.6319" lon="37.76707">
<time>27.06.2019, 16:24:55</time>
<name>0679.ст. м. Алма-Атинская (выход №2) [undefinedкм]</name>
<sym>Scenic Area</sym>
<extensions><color>#0088ff00</color></extensions>
</wpt>
<wpt lat="55.63972" lon="37.79355">
<time>27.06.2019, 16:24:55</time>
<name>0667.2-й квартал Капотни, д.18 [undefinedкм]</name>
<sym>Scenic Area</sym>
<extensions><color>#0088ff00</color></extensions>
</wpt>
<wpt lat="55.84727" lon="37.56728">
<time>27.06.2019, 16:24:55</time>
<name>0468.Дмитровское ш., д.63, к.1 [undefinedкм]</name>
<sym>Scenic Area</sym>
<extensions><color>#0088ff00</color></extensions>
</wpt>
<wpt lat="55.86409" lon="37.56033">
<time>27.06.2019, 16:24:55</time>
<name>0697.Бескудниковский б-р., д.13 [undefinedкм]</name>
<sym>Scenic Area</sym>
<extensions><color>#0088ff00</color></extensions>
</wpt>
<wpt lat="55.87313" lon="37.53887">
<time>27.06.2019, 16:24:55</time>
<name>0695.Бескудниковский б-р, д.57, к.1 [undefinedкм]</name>
<sym>Scenic Area</sym>
<extensions><color>#0088ff00</color></extensions>
</wpt>
<wpt lat="55.82531" lon="37.57239">
<time>27.06.2019, 16:24:55</time>
<name>0496.Дмитровское ш., д.25 [undefinedкм]</name>
<sym>Scenic Area</sym>
<extensions><color>#0088ff00</color></extensions>
</wpt>
<wpt lat="55.87567" lon="37.5163">
<time>27.06.2019, 16:24:55</time>
<name>0692.ул. Ангарская, д.17 [undefinedкм]</name>
<sym>Scenic Area</sym>
<extensions><color>#0088ff00</color></extensions>
</wpt>
<wpt lat="55.63532" lon="37.72217">
<time>27.06.2019, 16:24:55</time>
<name>0677.ул. Борисовские Пруды (напротив д.19, к.1) [undefinedкм]</name>
<sym>Scenic Area</sym>
<extensions><color>#0088ff00</color></extensions>
</wpt>
<wpt lat="55.6538" lon="37.73611">
<time>27.06.2019, 16:24:55</time>
<name>0663.ул. Перерва, д.40 [undefinedкм]</name>
<sym>Scenic Area</sym>
<extensions><color>#0088ff00</color></extensions>
</wpt>
<wpt lat="55.65867" lon="37.74905">
<time>27.06.2019, 16:24:55</time>
<name>0664.ул. Перерва, д.56, к.2 (ст. м. Братиславская, выход №3) [undefinedкм]</name>
<sym>Scenic Area</sym>
<extensions><color>#0088ff00</color></extensions>
</wpt>
<wpt lat="55.65631" lon="37.76145">
<time>27.06.2019, 16:24:55</time>
<name>0665.ул. Братиславская, д.20 [undefinedкм]</name>
<sym>Scenic Area</sym>
<extensions><color>#0088ff00</color></extensions>
</wpt>
<wpt lat="55.75699" lon="37.67832">
<time>27.06.2019, 16:24:55</time>
<name>0614.ул. Самокатная, д.4, стр.8 [undefinedкм]</name>
<sym>Scenic Area</sym>
<extensions><color>#0088ff00</color></extensions>
</wpt>
<wpt lat="55.61283" lon="37.73058">
<time>27.06.2019, 16:24:55</time>
<name>0681.ул. Елецкая, вл.1А (перекрёсток Орехового б-ра и Елецкой ул.) [undefinedкм]</name>
<sym>Scenic Area</sym>
<extensions><color>#0088ff00</color></extensions>
</wpt>
<wpt lat="55.80808" lon="37.63073">
<time>27.06.2019, 16:24:55</time>
<name>0705.ул. Годовикова, д.9, стр.14 [undefinedкм]</name>
<sym>Scenic Area</sym>
<extensions><color>#0088ff00</color></extensions>
</wpt>
<wpt lat="55.70524" lon="37.48227">
<time>27.06.2019, 16:24:55</time>
<name>0275.ул. Матвеевская, вл.2 (ст. Матвеевская) [undefinedкм]</name>
<sym>Scenic Area</sym>
<extensions><color>#0088ff00</color></extensions>
</wpt>
<wpt lat="55.75161" lon="37.71587">
<time>27.06.2019, 16:24:55</time>
<name>0617.ш. Энтузиастов, д.15/16 (ст. м. Авиамоторная, выход к ул. Красноказарменная) [undefinedкм]</name>
<sym>Scenic Area</sym>
<extensions><color>#0088ff00</color></extensions>
</wpt>
<wpt lat="55.65585" lon="37.65011">
<time>27.06.2019, 16:24:55</time>
<name>0674.ст. м. Каширская (северный вестибюль) [undefinedкм]</name>
<sym>Scenic Area</sym>
<extensions><color>#0088ff00</color></extensions>
</wpt>
<wpt lat="55.74603" lon="37.57995">
<time>27.06.2019, 16:24:55</time>
<name>0238.ул. Смоленская, д.8 [undefinedкм]</name>
<sym>Scenic Area</sym>
<extensions><color>#0088ff00</color></extensions>
</wpt>
<wpt lat="55.83351" lon="37.57197">
<time>27.06.2019, 16:24:55</time>
<name>0454.Дмитровское ш., д.43, к.1 (ст. м. Петровско-Разумовская, выход №5) [undefinedкм]</name>
<sym>Scenic Area</sym>
<extensions><color>#0088ff00</color></extensions>
</wpt>
<wpt lat="55.70916" lon="37.47951">
<time>27.06.2019, 16:24:55</time>
<name>0242.ул. Веерная, д.30, к.1 [undefinedкм]</name>
<sym>Scenic Area</sym>
<extensions><color>#0088ff00</color></extensions>
</wpt>
<wpt lat="55.67135" lon="37.45159">
<time>27.06.2019, 16:24:55</time>
<name>0295.ул. Озёрная, д.31, к.3 (ст. м. Озёрная, выход №2) [undefinedкм]</name>
<sym>Scenic Area</sym>
<extensions><color>#0088ff00</color></extensions>
</wpt>
<wpt lat="55.87977" lon="37.5575">
<time>27.06.2019, 16:24:55</time>
<name>0689.ул. 800-летия Москвы, д.22, к.2 [undefinedкм]</name>
<sym>Scenic Area</sym>
<extensions><color>#0088ff00</color></extensions>
</wpt>
<wpt lat="55.79358" lon="37.49285">
<time>27.06.2019, 16:24:55</time>
<name>0546.ул. Народного Ополчения, д.47, к.1, стр.1 [undefinedкм]</name>
<sym>Scenic Area</sym>
<extensions><color>#0088ff00</color></extensions>
</wpt>
<wpt lat="55.6744" lon="37.46851">
<time>27.06.2019, 16:24:55</time>
<name>0297.Мичуринский пр-т, Олимпийская Деревня, д.4, к.2 [undefinedкм]</name>
<sym>Scenic Area</sym>
<extensions><color>#0088ff00</color></extensions>
</wpt>
<wpt lat="55.67008" lon="37.47848">
<time>27.06.2019, 16:24:55</time>
<name>0298.пр-т Вернадского, д.78, стр.4 [undefinedкм]</name>
<sym>Scenic Area</sym>
<extensions><color>#0088ff00</color></extensions>
</wpt>
<wpt lat="55.66533" lon="37.46636">
<time>27.06.2019, 16:24:55</time>
<name>0299.ул. Академика Анохина, д.12, к.2 [undefinedкм]</name>
<sym>Scenic Area</sym>
<extensions><color>#0088ff00</color></extensions>
</wpt>
<wpt lat="55.77585" lon="37.47528">
<time>27.06.2019, 16:24:55</time>
<name>0514.пр-т Маршала Жукова, д.28 [undefinedкм]</name>
<sym>Scenic Area</sym>
<extensions><color>#0088ff00</color></extensions>
</wpt>
<wpt lat="55.77961" lon="37.45492">
<time>27.06.2019, 16:24:55</time>
<name>0516.пр-т Маршала Жукова, д.70, к.1 (перекрёсток с ул. Живописной) [undefinedкм]</name>
<sym>Scenic Area</sym>
<extensions><color>#0088ff00</color></extensions>
</wpt>
<wpt lat="55.78494" lon="37.46338">
<time>27.06.2019, 16:24:55</time>
<name>0519.ул. Генерала Глаголева, д.21 [undefinedкм]</name>
<sym>Scenic Area</sym>
<extensions><color>#0088ff00</color></extensions>
</wpt>
<wpt lat="55.65671" lon="37.77215">
<time>27.06.2019, 16:24:55</time>
<name>0666.Перервинский б-р, д.21, к.1 [undefinedкм]</name>
<sym>Scenic Area</sym>
<extensions><color>#0088ff00</color></extensions>
</wpt>
<wpt lat="55.74883" lon="37.6827">
<time>27.06.2019, 16:24:55</time>
<name>0612.ул. Золоторожский Вал, д.11, стр.1 [undefinedкм]</name>
<sym>Scenic Area</sym>
<extensions><color>#0088ff00</color></extensions>
</wpt>
<wpt lat="55.7465" lon="37.67151">
<time>27.06.2019, 16:24:55</time>
<name>0609.ул. Сергия Радонежского, д.2 [undefinedкм]</name>
<sym>Scenic Area</sym>
<extensions><color>#0088ff00</color></extensions>
</wpt>
<wpt lat="55.74661" lon="37.67847">
<time>27.06.2019, 16:24:55</time>
<name>0611.ст. м. Площадь Ильича (выход №3) [undefinedкм]</name>
<sym>Scenic Area</sym>
<extensions><color>#0088ff00</color></extensions>
</wpt>
<wpt lat="55.88628" lon="37.53481">
<time>27.06.2019, 16:24:55</time>
<name>0694.ул. Софьи Ковалевской, д.16 [undefinedкм]</name>
<sym>Scenic Area</sym>
<extensions><color>#0088ff00</color></extensions>
</wpt>
<wpt lat="55.68626" lon="37.4617">
<time>27.06.2019, 16:24:55</time>
<name>0293.ул. Большая Очаковская, д.7 [undefinedкм]</name>
<sym>Scenic Area</sym>
<extensions><color>#0088ff00</color></extensions>
</wpt>
<wpt lat="55.8657" lon="37.54805">
<time>27.06.2019, 16:24:55</time>
<name>0696.ст. м. Селигерская (выход №3) [undefinedкм]</name>
<sym>Scenic Area</sym>
<extensions><color>#0088ff00</color></extensions>
</wpt>